#;Название;Категории;Сайт;Email;Адрес;Широта;Долгота;Телефоны;Тип;Время работы;Информация;Цвет;Оплачена;Исключена из ЛК
1467347;Алексин | Слухи;Информационные порталы, группы, блоги;https://vk.com/alexin_gossip;;;;;;org;;Слухи – это место, где можно анонимно излить душу, поделиться своим мнением, рассказать или узнать последние слухи города.;;Нет;Нет
1508056;Арборист;Другое;http://www.spilim-derevo.com;;Тульская обл., Алексин, ул. Чехова, 8а;54.482882;36.994582;+7 (919) 081-73-37;org;ежедневно, 9:00-18:00;;;Нет;Нет
1508057;Собор Успения Пресвятой Богородицы в Алексине (новый);Церкви, храмы, монастыри;;;Тульская обл., Алексинский р-н, г. Алексин, Соборная площадь 1;54.516673;37.083236;+7 (48753)  6-23-09;org;;;;Нет;Нет
1508058;Церковь Алексия Цесаревича в Алексине;Церкви, храмы, монастыри;http://tsarevich.cerkov.ru/;tsarevich-aleksii@yandex.ru;Тульская обл., Алексинский р-н, г. Алексин, мкрн. Бор;54.52124;37.084252;;org;;;;Нет;Нет
1508059;Церковь в Алексине МКР Петровка;Церкви, храмы, монастыри;;;Тульская обл., Алексинский р-н, г. Алексин, ул. Дружбы, у д. 9;54.48432;37.000762;;org;;;;Нет;Нет
1508060;Здесь аптека;Аптеки;;;Тульская обл., Алексин г., ул. Металлистов, 17;54.483567;36.987737;+7 (48753)5-62-36;org;ежедневно, 8:00-19:00;;;Нет;Нет
1508061;7 Sky;Двери;;;Тульская обл., Алексинский р-н, Алексин, ул. Чехова, 8а;54.482613;36.99399;+7 (919) 081-73-37;org;ежедневно, 9:00-18:00;;;Нет;Нет
1508062;Пятёрочка;Пятёрочка;http://www.pyaterochka.ru;;Тульская обл., Алексин г., ул. Дружбы, 7;54.4843;36.9981;8 (800) 555-55-05;org;ежедневно, 08:00-23:00;;;Нет;Нет
1508063;Роспечать;Роспечать;http://www.rosp.ru;;Тульская обл., Алексин г., ул. Металлистов, 15, мкр. Петровское;54.483049;36.987961;;org;;;;Нет;Нет
1508064;Московский индустриальный банк, банкомат;Московский индустриальный банк;http://www.minbank.ru;;Тульская обл., Алексин г., ул. Металлистов, 6;54.484102;36.98913;+7 (4872) 34-14-73, 8 (800) 100-74-74;org;;;;Нет;Нет
1508065;"МБОУ ""Средняя общеобразовательная школа 9""";Общеобразовательные школы;;;Тульская обл., Алексинский р-н, Алексин г., ул. Школьная, 4;54.483065;36.990047;+7 (48753) 5-61-89;org;;;;Нет;Нет
1508066;Экоцентр;Хозтовары;;;Тульская обл., Алексинский р-н, Алексин г., ул. Металлистов, 6;54.483797;36.988949;+7 (48753) 5-55-23;org;ежедневно, 10:00-19:00;;;Нет;Нет
1508067;Клён;"Мебель на заказ; Дача, сад и огород";http://oooklen.ru;;Тульская обл., Алексин г., Красное дер., ул. Школьная, 1;54.485141;36.993288;+7 (487) 238-48-42;org;пн-пт 8:00-17:00;;;Нет;Нет
1508068;Московский кредитный банк, платежный терминал;Московский Кредитный Банк;http://mkb.ru;;Тульская обл., Алексин г., ул. Дружбы, 7, Универсам Пятерочка;54.484181;36.99795;+7 (495) 777-48-88, 8 (800) 100-48-88;org;ежедневно, 8:00-23:00;;;Нет;Нет
1508069;Россельхозбанк;Россельхоз банк;http://www.rshb.ru;;Тульская обл., Алексин г., ул. Юности, 2;54.526016;37.083362;8 (800) 200-60-99, +7 (4872) 55-00-86, 8 (800) 200-02-90, +7 (4872) 55-00-89;org;пн-пт 9:30-17:30;;;Нет;Нет
1508070;Сбербанк России, банкомат;Сбербанк России;http://www.sberbank.ru;;Тульская обл., Алексин г., ул. Здоровья, 11а;54.52532;37.08065;8 (800) 555-55-50;org;;;;Нет;Нет
1508071;Сбербанк России;Сбербанк России;http://www.sberbank.ru;;Тульская обл., Алексин г., ул. 50 лет Октября, 16;54.525615;37.082677;8 (800) 555-55-50, +7 (495) 500-55-50;org;"пн-пт 9:00-18:30; сб 9:00-17:00";;;Нет;Нет
1508072;ВТБ 24, банкомат;ВТБ;http://www.vtb24.ru;;Тульская обл., Алексин г., ул. 50 лет Октября, 19, БРИС;54.527427;37.082986;8 (800) 100-24-24;org;;;;Нет;Нет
1508073;Сбербанк России, банкомат;Сбербанк России;http://www.sberbank.ru;;Тульская обл., Алексин г., ул. 50 лет Октября, 16;54.52553;37.08262;8 (800) 555-55-50;org;ежедневно, круглосуточно;;;Нет;Нет
1508074;Алексинский детский дом, ГОУ ТО;Социальная защита;;;Тульская обл., Алексинский р-н, Алексин г., ул. 50 лет ВЛКСМ, 15;54.531607;37.084817;+7 (48753) 6-75-12;org;;;;Нет;Нет
1508075;Газпромбанк;"Банки и банкоматы; Газпромбанк";http://www.gazprombank.ru;;Тульская обл., Алексин г., ул. 50 лет Октября, 16;54.525508;37.082585;8 (800) 100-07-01;org;пн-пт 9:30-17:00;;;Нет;Нет
1508076;Поликлиника 3;Поликлиники;;;Тульская обл., Алексинский р-н, Алексин г., ул. 50 лет Октября, 21;54.527411;37.082572;+7 (48753) 6-77-94, +7 (48753) 6-78-28, +7 (48753) 6-77-03;org;;ГУЗ Алексинская районная больница № 1 им. В.Ф. Снегирева;;Нет;Нет
1508077;Экспресс-Дент;Стоматология;http://express-dent.ru;;Тульская обл., Алексинский р-н, Алексин, ул. Юности, 5;54.526445;37.085419;+7 (48753) 6-36-00, +7 (48753) 6-88-96;org;"пн-пт 9:00-20:00; сб 9:00-14:30";;;Нет;Нет
1508078;Нотариус Ермошина Людмила Александровна;Нотариусы;http://notariusaleksin.ucoz.ru;;Тульская обл., Алексинский р-н, Алексин г., ул. Юности, 2;54.526016;37.083362;+7 (48753) 6-07-37;org;;;;Нет;Нет
1508080;Универсам Магнит;Магнит;http://www.magnit-info.ru;;Тульская обл., Алексин г., ул. 50 лет Октября, 17;54.526061;37.081848;8 (800) 200-90-02;org;ежедневно, 9:00-21:00;;;Нет;Нет
1508081;Магнит Косметик;"Хозтовары; Косметика и парфюмерия, бытовая химия";http://www.magnit-info.ru;;Тульская обл., Алексин г., ул. 50 лет Октября, 17;54.525845;37.081636;8 (800) 200-90-02;org;ежедневно, 9:30-20:30;;;Нет;Нет
1508082;Московский индустриальный банк, банкомат;Московский индустриальный банк;http://www.minbank.ru;;Тульская обл., Алексин г., ул. 50 лет Октября, 19;54.526711;37.082221;8 (800) 100-74-74, +7 (4872) 34-14-73;org;;;;Нет;Нет
1508084;"МФЦ Тульской области МКР ""БОР""";Многофункциональный центр МФЦ;http://mfc71.ru;;Тульская обл., Алексин, ул. 50 лет Октября, 23;54.528054;37.082563;+7 (800) 4500071;org;"пн-пт 8:00-20:00; сб 9:00-16:00";;;Нет;Нет
1508085;Газэнергобанк;Газэнерго банк;http://www.gebank.ru;;Тульская обл., Алексинский р-н, Алексин г., ул. 50 лет Октября, 19а;54.526346;37.082715;8 (800) 700-30-00;org;;Банкомат;;Нет;Нет
1508087;Юнистрим;Другое;http://www.unistream.ru;;Тульская обл., Алексин г., ул. Юности, 2;54.526016;37.083362;+7 (48753) 6-16-13, 8 (800) 333-22-44;org;пн-пт 9:30-17:30;;;Нет;Нет
1508088;Ремонт телевизоров;Другое;;;Тульская обл., Алексин г., ул. 50 лет Октября, 50;54.52553;37.08111;+7 (915) 789-56-29;org;ежедневно, 9:00-21:00;;;Нет;Нет
1508089;Зелёный город;Агентства недвижимости;http://zegor.ru;;Тульская обл., Алексин г., ул. Юности, 2а;54.526016;37.083362;+7 (953) 426-37-37;org;пн-сб 9:00-18:00;;;Нет;Нет
1508093;Магазин № 5, Алексинское РАЙПО;Продукты;;;Тульская обл., Алексинский р-н, Алексин г., ул. 50 лет Советской Армии, 19а;54.529271;37.084826;+7 (48753) 6-00-91;org;;;;Нет;Нет
1508094;Contact;Другое;http://www.contact-sys.com;;Тульская обл., округ Алексин, Алексин, ул. 50 лет Октября, 19а;54.526346;37.082715;+7 (48753) 6-80-63, 8 (800) 200-42-42;org;ежедневно, 9:00-20:00;;;Нет;Нет
1508095;SPAR;SPAR;http://www.spartula.ru;;Тульская обл., Алексин г., ул. 50 лет Октября, 19;54.526711;37.082221;8 (800) 100-90-39;org;ежедневно, круглосуточно;;;Нет;Нет
1508096;Лидер;Другое;http://www.leadermt.ru;;Тульская обл., Алексинский р-н, Алексин г., ул. 50 лет Октября, 15а;54.52553;37.081107;8 (800) 333-44-44, +7 (4872) 55-77-55;org;"пн-пт 9:00-19:00; сб 9:00-16:00";;;Нет;Нет
1508097;Юнистрим;Другое;http://www.unistream.ru;;Тульская обл., Алексин г., ул. 50 лет Октября, 19а;54.5267;37.0822;+7 (48753) 6-80-63, 8 (800) 333-22-44;org;пн-пт 9:00-19:00;;;Нет;Нет
1508098;Газэнергобанк, банкомат;Банки и банкоматы;http://www.gebank.ru;;Тульская обл., Алексинский р-н, Алексин г., ул. 50 лет Октября, 19а;54.526346;37.082715;+7 (4848) 55-77-55, 8 (800) 700-30-00;org;;;;Нет;Нет
1508099;МБУ ДО Центр психолого-педагогической медицинской и социальной помощи;Социальная защита;http://cpmss.obraleksin.ru;aleksin.cppmsp@tularegion.ru;Тульская обл., Алексинский р-н, Алексин г., ул. 50 лет ВЛКСМ, 10;54.528524;37.083183;+7 (48753) 6-74-77, 67523;org;Обед 12:00-12:30;;;Нет;Нет
1508101;Western Union;Другое;http://www.westernunion.ru;;Тульская обл., Алексин г., ул. Юности, 2, АО Россельхозбанк;54.526016;37.083362;8 (800) 200-22-32;org;вт-сб 9:30-17:30;;;Нет;Нет
1508102;MoneyGram;Другое;http://ru.moneygraminfo.com;;Тульская обл., Алексин г., ул. 50 лет Октября, 16, Сбербанк;54.525483;37.08268;8 (800) 500-92-53;org;пн-сб 9:00-18:45;;;Нет;Нет
1508103;Управдом;Другое;;;Тульская обл., Алексинский р-н, Алексин г., ул. Здоровья, 3;54.525739;37.07994;+7 (48753) 6-78-67;org;;;;Нет;Нет
1508104;Орхидея-парфюм;Косметика и парфюмерия, бытовая химия;http://orhideya-parfum.ru;;Тульская обл., Алексинский р-н, Алексин, ул. 50 лет Октября, 17;54.525959;37.081673;+7 (910) 702-02-34;org;"пн 10:00-21:00; вт-вс 10:00-20:00";;;Нет;Нет
1508105;Сбербанк России, платежный терминал;Сбербанк России;http://www.sberbank.ru;;Тульская обл., Алексин г., ул. 50 лет Октября, 23;54.52805;37.08261;8 (800) 555-55-50;org;;;;Нет;Нет
1508106;МБУ ДО «ДЮСШ «Горизонт» ;"Спортивные центры, клубы; Спортивные школы; Спортивные секции";http://gorizont.obraleksin.ru;aleksin.dushgorizont@tularegion.org;Тульская обл., Алексинский р-н, Алексин г., ул. Революции, 10;54.525217;37.068801;+7 (48753) 6-75-54;org;;;;Нет;Нет
1508107;Лаборатория интернет-решений для бизнеса 888lab;Рекламные услуги;http://888lab.ru;;Тульская обл., Алексин г., ул. Юности, 6;54.5263;37.08453;+7 (920) 788-80-11;org;ежедневно, 10:00-20:00;;;Нет;Нет
1508108;Тулагеопроект;Другое;;;Тульская обл., Алексинский р-н, Алексин, ул. 50 лет Октября, 16;54.525483;37.08268;+7 (48753) 6-01-66;org;пн-пт 8:00-17:00;;;Нет;Нет
1508109;Россельхозбанк, платежный терминал;Другое;http://www.rshb.ru;;Тульская обл., округ Алексин, Алексин, ул. Юности, 2;54.526016;37.083362;8 (800) 200-02-90;org;;;;Нет;Нет
1508111;ВТБ 24, банкомат;ВТБ;http://www.vtb24.ru;;Тульская обл., Алексин г., ул. Металлистов, 47, Тандер, маг. Магнит;54.490559;36.984934;8 (800) 100-24-24;org;;;;Нет;Нет
1508112;Сбербанк России, банкомат;Сбербанк России;http://www.sberbank.ru;;Тульская обл., Алексин г., ул. Металлистов, 47;54.49088;36.98502;8 (800) 555-55-50;org;Ежедневно 10:00-22:00;;;Нет;Нет
1508113;Сбербанк России, банкомат;Сбербанк России;http://www.sberbank.ru;;Тульская обл., Алексин г., ул. Мира, 20;54.48939;36.99307;8 (800) 555-55-50;org;Ежедневно 09:00-22:00;;;Нет;Нет
1508114;Универсам Магнит;Магнит;http://www.magnit-info.ru;;Тульская обл., Алексин г., ул. Металлистов, 47;54.490694;36.985022;8 (800) 200-90-02;org;ежедневно, 9:30-22:00;;;Нет;Нет
1508115;АвтоЛайн автостанция;Другое;http://avtoplus-line.ru;;Тульская обл., Алексин, ул. Чехова, 18б;54.487542;36.993459;+7 (48753) 5-55-00, +7 (953) 184-20-00, +7 (910) 157-99-69, +7 (905) 626-60-03, +7 (903) 659-06-06;org;ежедневно, круглосуточно;;;Нет;Нет
1508116;Алексинский кирпичный завод Туластройматериалы;Другое;;;Тульская обл., Алексинский р-н, Алексин г., ул. Луговая, 5;54.494811;36.978861;+7 (48753) 5-66-30;org;;;;Нет;Нет
1508117;Газпромбанк, банкомат;Газпромбанк;http://www.gazprombank.ru;;"Тульская обл., Алексин, ул. Металлистов, 47, магазин ""Ночной""";54.490554;36.984801;8 (800) 100-07-01;org;ежедневно, круглосуточно;;;Нет;Нет
1508118;Блоки-РФ;Другое;http://bloki-rf.narod.ru;;Тульская обл., Алексин г., ул. Металлистов;54.488337;36.986335;+7 (953) 974-41-14;org;ежедневно, 10:00-19:00;;;Нет;Нет
1508119;Поликлиника 4;Поликлиники;;;Тульская обл., Алексинский р-н, Алексин г., ул. Урицкого, 12;54.487312;36.985661;+7 (48753) 5-62-34, +7 (48753) 5-63-67, +7 (48753) 5-62-00;org;;ГУЗ Алексинская районная больница № 1 им. В.Ф. Снегирева;;Нет;Нет
1508120;Excellent Bird;Сантехника;;;Тульская обл., Алексин, ул. Калинина, 1;54.488713;36.981421;+7 (985) 831-50-51, +7 (925) 876-92-26;org;;;;Нет;Нет
1508121;Жилищник Сервис;Другое;;;Тульская обл., Алексинский р-н, Алексин г., ул. Серафимовича, 3;54.489309;36.996342;+7 (48753) 5-68-02;org;;;;Нет;Нет
1508122;Магазин № 17;Хозтовары;;;Тульская обл., Алексинский р-н, Алексин г., ул. Металлистов, 47;54.490559;36.984934;+7 (48753) 5-54-55;org;;;;Нет;Нет
1508124;Aromissimo;Другое;http://aromissimo.com;;Тульская обл., Алексинский р-н, Алексин, ул. Металлистов, 43;54.489309;36.985419;+7 (915) 111-42-90;org;;;;Нет;Нет
1508126;Comepay;Платёжный терминал Comepay;http://www.comepay.ru;;Тульская обл., Алексинский р-н, Алексин г., ул. Металлистов, 47;54.490559;36.984934;8 (800) 100-80-50;org;;;;Нет;Нет
1508129;ВТБ 24, банкомат;ВТБ;http://www.vtb24.ru;;Тульская обл., Алексин г., ул. Чехова, 18, Дикси;54.487139;36.994429;8 (800) 100-24-24;org;;;;Нет;Нет
1508130;Сбербанк России;Сбербанк России;http://www.sberbank.ru;;Тульская обл., Алексин г., ул. Металлистов, 29;54.486992;36.986331;8 (800) 555-55-50, +7 (495) 500-55-50;org;;;;Нет;Нет
1508131;Сбербанк России, банкомат;Сбербанк России;http://www.sberbank.ru;;Тульская обл., Алексин г., ул. Чехова, 17а;54.48629;36.99444;8 (800) 555-55-50;org;ежедневно, 9:00-18:00;;;Нет;Нет
1508132;Дикси;Дикси;http://www.dixy.ru;;Тульская обл., округ Алексин, Алексин, ул. Чехова, 18;54.4867;36.9947;8 (800) 333-02-01;org;ежедневно, 10:00-22:00;;;Нет;Нет
1508134;Алексинская аптека;Аптеки;;;Тульская обл., Алексинский р-н, Алексин г., ул. Вересаева, 2а;54.485675;36.995498;+7 (48753) 5-50-16;org;;;;Нет;Нет
1508135;Western Union;Другое;http://www.westernunion.ru;;Тульская обл., Алексин г., ул. Металлистов, 29, ФГУП Почта России;54.487008;36.986281;8 (800) 200-22-32;org;"вт-сб 8:00-20:00; вс 8:00-18:00";;;Нет;Нет
1508136;Отделение почтовой связи Алексин 301365;Почта;http://www.russianpost.ru;;Тульская обл., Алексинский р-н, Алексин г., ул. Металлистов, 19;54.484341;36.987359;+7 (48753) 5-62-90, 8 (800) 200-58-88;org;вт-сб 10:00-17:00, перерыв 13:00-14:00;МКР Петровка;;Нет;Нет
1508137;Комитет территориального общественного самоуправления № 7;Администрация района;;;Тульская обл., Алексинский р-н, Алексин г., ул. Вересаева, 2;54.485424;36.995992;+7 (48753) 5-79-38;org;;;;Нет;Нет
1508139;MoneyGram;Другое;http://ru.moneygraminfo.com;;Тульская обл., Алексин г., ул. Металлистов, 29, Сбербанк;54.487008;36.986281;8 (800) 500-92-53;org;"пн круглосуточно; вт-пт 9:00-17:45; сб 9:00-16:00";;;Нет;Нет
1508140;Алексинское специальное конструкторско-технологическое бюро, филиал ЦНКБ, ГУП;"Научно-производственные организации; Проектирование и дизайн";http://cnkb.ru/148;;Тульская обл., Алексинский р-н, Алексин г., ул. Металлистов, 10;54.485502;36.987808;+7 (48753) 5-53-93;org;;;;Нет;Нет
1508144;СТС 21;Другое;http://mrblok.ru;;Тульская обл., Алексинский р-н, Алексин, ул. Набережная;54.493556;37.067534;+7 (953) 438-28-28;org;;;;Нет;Нет
1508145;Отделение почтовой связи Алексин 301362;Почта;http://www.russianpost.ru;;Тульская обл., Алексинский р-н, Алексин г., ул.Трудовые резервы, д.17/34;54.496437;37.0696;+7 (48753) 4-03-97, ;org;вт-сб 9:00-18:00, перерыв 13:00-14:00;МКР Соцгород;;Нет;Нет
1508146;Пятёрочка;Пятёрочка;http://www.pyaterochka.ru;;Тульская обл., Алексин г., ул. Ленина, 26;54.496563;37.067211;8 (800) 555-55-05;org;ежедневно, 08:00-23:00;;;Нет;Нет
1508147;Железнодорожная станция Алексин;"Железнодорожные вокзалы; Ж/д кассы";http://rzd.ru;;Тульская обл., Алексин г., ул. Дзержинского;54.50063;37.079304;+7 (48753) 5-62-58, ;org;ежедневно, 8:00-17:00;;;Нет;Нет
1508148;Магазин № 24;Продукты;;;Тульская обл., Алексинский р-н, Алексин г., ул. Трудовые Резервы, 19;54.496108;37.069052;+7 (48753) 4-08-49;org;;;;Нет;Нет
1508150;Управление ПФР в г. Алексине и Алексинском районе;Другое;http://www.pfrf.ru;;Тульская обл., Алексин г., ул. Октябрьская, 1;54.498047;37.062899;+7 (48753) 4-35-60, 8 (800) 775-54-45, +7 (48753) 4-88-16;org;"пн-чт 9:00-18:00, перерыв 13:00-13:45; пт 9:00-16:45, перерыв 13:00-13:45";;;Нет;Нет
1508151;Автосервис;"Шиномонтаж; Автосервисы";;;Тульская обл., Алексин г., ул. Ленина, 26;54.496563;37.067211;+7 (920) 270-36-66;org;пн-сб 10:00-19:00;;;Нет;Нет
1508152;ГУ ТО Комплексный центр социального обслуживания населения №2 ;Социальная защита;;;Тульская обл., Алексинский р-н, Алексин г., ул. Пионерская, 2;54.497185;37.06677;+7 (48753) 4-48-41;org;Обед 12:00-12:48;;;Нет;Нет
1508153;Участковый пункт полиции;Полиция;http://71.mvd.ru;;Тульская обл., Алексин г., ул. Пахомова, 11;54.501101;37.07004;+7 (915) 7800752, +7 (48753) 4-79-66, +7 (48753) 4-11-33, +7 (48753) 4-38-58;org;;;;Нет;Нет
1508155;Московский Индустриальный Банк;Московский индустриальный банк;http://www.minbank.ru;;Тульская обл., Алексин г., ул. Ленина, 14;54.5005;37.067103;+7 (48753) 4-74-22, 8 (800) 100-74-74;org;пн-пт 9:00-17:00;;;Нет;Нет
1508156;Отделение почтовой связи Алексин 301371;Почта;http://www.russianpost.ru;;Тульская обл., Алексинский р-н, Алексин г., ул. Октябрьская, 2;54.497546;37.061488;+7 (48753) 4-92-74, ;org;"вт-пт 10:00-17:00, перерыв 13:00-14:30; сб 10:00-13:00";;;Нет;Нет
1508157;Салон-магазин МТС;Салоны связи МТС;http://www.tula.mts.ru;;Тульская обл., Алексин г., ул. Мира, 18;54.5009;37.071;8 (800) 250-08-90;org;ежедневно, 9:00-20:00;;;Нет;Нет
1508158;Пятёрочка;Пятёрочка;http://www.pyaterochka.ru;;Тульская обл., Алексин г., ул. Пионерская, 16;54.495668;37.061156;8 (800) 555-55-05;org;ежедневно, 08:00-23:00;;;Нет;Нет
1508159;Ветеринарная клиника Леопольд;"Ветлечебницы, ветеринарные врачи; Зоомагазины; Ветеринарные аптеки";;;Тульская обл., Алексинский р-н, Алексин, ул. Героев Алексинцев, 8а;54.499218;37.06326;+7 (920) 787-33-33;org;;;;Нет;Нет
1508160;Центрэнергохолдинг-ТБО-Алексин;Другое;http://aleksin.1-top.ru;;Тульская обл., Алексинский р-н, Алексин, ул. Пионерская, 1;54.496772;37.066249;+7 (905) 110-80-53;org;пн-пт 9:00-18:00;;;Нет;Нет
1508161;Росгосстрах;"Страховые компании; Автострахование (КАСКО, ОСАГО)";http://www.rgs.ru;;Тульская обл., Алексин г., ул. Пахомова, 9;54.501101;37.070004;+7 (48753) 4-06-67, 8 (800) 200-09-00;org;"вт-пт 8:30-17:30; сб 8:30-16:30";;;Нет;Нет
1508162;Дополнительный офис, Алексинский отдел, Управление федеральной службы государственной регистрации кадастра и картографии;Другое;http://www.to71.rosreestr.ru;;Тульская обл., округ Алексин, Алексин, ул. Героев Алексинцев, 10;54.498445;37.064677;+7 (48753) 4-11-54, 8 (800) 100-34-34, +7 (48753) 4-20-10;org;;;;Нет;Нет
1508164;Газпром межрегионгаз, Алексинская р-нная служба - Алексинский участок, г. Алексин;Другое;http://www.mrgtula.ru;;Тульская обл., Алексин г., ул. Пионерская, 18;54.495198;37.059907;+7 (48753) 4-88-92;org;"пн-чт 8:00-17:00, перерыв 12:00-12:48; пт 8:00-16:00, перерыв 12:00-12:48";;;Нет;Нет
1508165;Универсам Магнит;Магнит;http://www.magnit-info.ru;;Тульская обл., Алексин г., ул. Пионерская, 12а;54.496563;37.063009;8 (800) 200-90-02;org;ежедневно, 10:00-22:00;;;Нет;Нет
1508166;Церковь Воздвижения Честного Креста Господня в Алексине;Церкви, храмы, монастыри;;;Тульская обл., г. Алексин, мкрн. Горушки, ул. Арматурная, 20А;54.519161;37.049882;;org;;;;Нет;Нет
1508167;УФК по Тульской области, отделение № 17;Другое;http://tula.roskazna.ru;;Тульская обл., Алексин г., ул. Октябрьская, 1;54.498047;37.062899;+7 (48753) 4-94-86;org;;;;Нет;Нет
1508169;Фонд Социального Страхования;Страховые компании;http://www.fss.ru;;Тульская обл., округ Алексин, Алексин, ул. Героев Алексинцев, 8а;54.499062;37.063087;+7 (48753) 4-14-49;org;;;;Нет;Нет
1508170;Юнистрим;Другое;http://www.unistream.ru;;Тульская обл., Алексин г., ул. Ленина, 14;54.5007;37.0669;+7 (4872) 24-88-31, +7 (48753) 4-74-22, 8 (800) 333-22-44;org;"пн-пт 9:00-17:00; сб 9:00-16:00";;;Нет;Нет
1508171;ИнтерПромЭнерго Тула;Другое;;;Тульская обл., Алексинский р-н, Алексин, ул. Героев Алексинцев, 8, оф. 19;54.499674;37.063887;+7 (48753) 4-89-51;org;пн-пт 9:00-18:00;;;Нет;Нет
1508172;Главное управление МЧС России по Тульской области управление по г. Алексин;"Пожарная охрана; МЧС";;;Тульская обл., Алексин г., ул. Пионерская, 1;54.496772;37.066249;+7 (48753) 4-18-49;org;;;;Нет;Нет
1508173;Общественная приемная правительства Тульской области г. Алексин;Другое;;;Тульская обл., Алексинский р-н, Алексин, ул. Пионерская, 8;54.497242;37.063959;+7 (48753) 4-78-98;org;;;;Нет;Нет
1508174;Western Union;Другое;http://www.westernunion.ru;;Тульская обл., Алексин г., ул. Октябрьская, 2, ФГУП Почта России;54.497546;37.061488;8 (800) 200-22-32;org;"вт-сб 8:00-20:00; вс 8:00-18:00";;;Нет;Нет
1508175;Western Union;Другое;http://www.westernunion.ru;;Тульская обл., Алексин г., ул. Ленина, 14, ПАО МИнБанк;54.5005;37.067103;8 (800) 200-22-32;org;пн-пт 9:00-16:00, перерыв 13:00-14:00;;;Нет;Нет
1508176;Министерство труда и социальной защиты Тульской области, территориальный отдел опеки по Алексинскому району и Р.П. Новогуровский;Социальная защита;;;Тульская обл., Алексинский р-н, Алексин г., ул. Пионерская, 8;54.497242;37.063959;+7 (48753) 4-47-60;org;;;;Нет;Нет
1508177;Производственное объединение Стройтехсервис 21;Другое;http://keramzitka.ru;;Тульская обл., Городской округ Алексин, Алексин, ул. Набережная, 40а;54.489425;37.060267;+7 (495) 790-31-50, +7 (963) 933-22-22, +7 (903) 845-22-22;org;ежедневно, 9:00-20:00;;;Нет;Нет
1508178;Росгосстрах Банк;Росгосстрах Банк;http://rgsbank.ru;;Тульская обл., Алексин г., ул. Пахомова, 9;54.501101;37.070004;+7 (48753) 4-06-67, 8 (800) 700-40-40;org;"пн-чт 8:30-17:30; пт 8:30-16:30; сб 10:00-14:00";;;Нет;Нет
1508179;Банк Россия, банкомат;Банк Россия;http://web.abr.ru;;Тульская обл., округ Алексин, Алексин, ул. Пионерская, 18;54.495259;37.060087;8 (800) 100-11-11;org;пн-пт 8:00-17:00;;;Нет;Нет
1508181;Московский индустриальный банк, банкомат;Московский индустриальный банк;http://www.minbank.ru;;Тульская обл., Алексин г., ул. Ленина, 14;54.500599;37.067107;+7 (4872) 34-14-73, 8 (800) 100-74-74;org;;;;Нет;Нет
1508182;"Отдел по вопросам миграции МОМВД России ""Алексинский"" (бывшее УФМС)";"ФМС; Полиция";;;Тульская обл., г. Алексин, ул. Мира 10А;54.503699;37.072115;+7 (48753) 4-38-57, +7 (48753) 4-78-64;org;"Каждый кабинет работает по-своему графику
Обед:13.00 – 13.48
Среда - не приемный день для граждан
Суббота - выдача российский паспартов РФ (внутренний)";P.s - Все операции по регистрации граждан и замене паспорта через МФЦ;;Нет;Нет
1508183;Клуб Развития и Обучения Детей Озорник;Другое;http://ozornik-tula.ru;;Тульская обл., Алексинский р-н, Алексин, ул. Героев Алексинцев, 8а;54.499062;37.063087;+7 (953) 420-92-39;org;;;;Нет;Нет
1508184;Администрация МО г. Алексин, Глава МО;Администрация района;https://aleksin.tularegion.ru;adm.aleksin@tularegion.ru;Тульская обл., Алексинский р-н, Алексин г., ул. Героев-Алексинцев, 10;54.498445;37.064677;+7 (48753) 4-03-78;org;"Прием граждан:
10:00-12:00 
1 и 3 четверг, 2 и 4 суббота месяца 
";;;Нет;Нет
1508185;Микро Капитал Руссия;Другое;https://микрокапитал.рф;;Тульская обл., Алексин г., ул. Пахомова, 11а;54.501096;37.072097;+7 (48753) 4-08-67;org;пн-пт 9:00-19:00;;;Нет;Нет
1508186;Магазин № 5, ТД Вега;Продукты;;;Тульская обл., Алексинский р-н, Алексин г., ул. Октябрьская, 2;54.497546;37.061488;+7 (48753) 4-92-55;org;;;;Нет;Нет
1508187;Уютный дом;Мягкая мебель;;;Тульская обл., Алексин г., ул. Октябрьская, 2а;54.497608;37.060536;+7 (953) 190-47-57;org;пн-пт 10:00-19:00;;;Нет;Нет
1508189;Администрация МО г. Алексин, Управление делопроизводства;Администрация района;;;Тульская обл., Алексинский р-н, Алексин г., ул. Героев-Алексинцев, 10;54.498445;37.064677;+7 (48753) 4-75-07;org;Перерыв на обед 13-00-13-48. Выходные дни- суббота, воскресенье.;кабинет 202;;Нет;Нет
1508190;Тульское предприятие вычислительной техники и информатики;Другое;;;Тульская обл., Алексинский р-н, Алексин г., ул. Ленина, 14а;54.5005;37.067103;+7 (48753) 4-07-69;org;;;;Нет;Нет
1508192;Администрация МО г. Алексин, Управление по бюджету и финансам;Администрация района;;;Тульская обл., Алексинский р-н, Алексин г., ул. Героев-Алексинцев, 10;54.498445;37.064677;+7 (48753) 4-03-56;org;Перерыв на обед с 13-00 до 13-48. Выходные дни- суббота, воскресенье.;кабинет 312;;Нет;Нет
1508193;Администрация МО г. Алексин, Аппарат Собрания депутатов  муниципального образования город Алексин ;Администрация района;;;Тульская обл., Алексинский р-н, Алексин г., ул. Героев-Алексинцев, 10;54.498445;37.064677;+7 (48753) 4-03-92;org;Перерыв на обед 13-00-13-48. Выходные дни- суббота, воскресенье.;;;Нет;Нет
1508194;Администрация МО г. Алексин, Управление по административно-техническому надзору;Администрация района;;;Тульская обл., Алексинский р-н, Алексин г., ул. Героев-Алексинцев, 10;54.498445;37.064677;+7 (48753) 4-11-98;org;Обед 13-00-13-48;;;Нет;Нет
1508195;Администрация МО г. Алексин, Группа мобилизационной подготовки;Администрация района;;;Тульская обл., Алексинский р-н, Алексин г., ул. Героев-Алексинцев, 10;54.498445;37.064677;+7 (48753) 4-04-64;org;Перерыв на обед 13-00-13-48. Выходные дни- суббота, воскресенье.;;;Нет;Нет
1508196;Поликлиника 1;Поликлиники;;;Тульская обл., Алексинский р-н, Алексин г., ул. Героев-Алексинцев, 13;54.499355;37.065495;+7 (48753) 4-12-45, +7 (48753) 4-15-15, +7 (48753) 4-07-44;org;;ГУЗ Алексинская районная больница № 1 им. В.Ф. Снегирева;;Нет;Нет
1508197;Престиж;Такси;;;;;;+7 (48753) 66111, +7(48753) 61515, +7(48753) 64444;org;ежедневно, круглосуточно;;;Нет;Нет
1508198;Администрация МО г. Алексин, Комитет по правовой работе;Администрация района;;;Тульская обл., Алексинский р-н, Алексин г., ул. Героев-Алексинцев, 10;54.498445;37.064677;+7 (48753) 4-16-90;org;Перерыв на обед 13-00-13-48. Выходные дни- суббота, воскресенье.;;;Нет;Нет
1508199;Вега, торговый дом;Продукты;;;Тульская обл., Алексинский р-н, Алексин г., ул. Пахомова, 21, корп.7;54.500897;37.065495;+7 (48753) 4-19-57;org;;;;Нет;Нет
1508201;Администрация МО г. Алексин, Управление образования;Администрация района;;upr.obr.aleksin@tularegion.ru;Тульская обл., Алексинский р-н, Алексин г., ул. Пионерская, 8;54.497242;37.063959;+7 (48753) 4-02-19;org;Перерыв на обед 13-00-13-48. Выходные дни- суббота, воскресенье.;;;Нет;Нет
1508202;Отделение скорой помощи, ГУЗ Алексинская районная больница № 1 им. В.Ф. Снегирева;Другое;;;Тульская обл., Алексинский р-н, Алексин г., ул. Пахомова, 19;54.500594;37.06633;+7 (48753) 4-07-44;org;;;;Нет;Нет
1508204;Администрация МО г. Алексин,Управление по организационной, кадровой работе и информационному обеспечению;Администрация района;;aleksin.kadr@tularegion.org;Тульская обл., Алексинский р-н, Алексин г., ул. Героев-Алексинцев, 10;54.498445;37.064677;+7 (48753) 4-03-34, +7 (48753) 4-11-75, +7 (48753) 4-30-12;org;Перерыв на обед с 13-00 до 13-48. Выходные дни- суббота, воскресенье.;;;Нет;Нет
1508205;Администрация МО г. Алексин, Пресс-секретарь;Администрация района;;;Тульская обл., Алексинский р-н, Алексин г., ул. Героев-Алексинцев, 10;54.498445;37.064677;+7 (48753) 4-07-85;org;Перерыв на обед с 13-00 до 13-48. Выходные дни- суббота, воскресенье.;;;Нет;Нет
1508206;Торг;Агентства недвижимости;;;Тульская обл., Алексинский р-н, Алексин г., ул. Пахомова, 11а;54.501096;37.072097;+7 (48753) 4-18-54;org;;;;Нет;Нет
1508207;Администрация МО г. Алексин, Сектор по обеспечению работы комиссии по делам несовершеннолетних;Администрация района;;;Тульская обл., Алексинский р-н, Алексин г., ул. Героев-Алексинцев, 10;54.498445;37.064677;+7 (48753) 4-26-11;org;Перерыв на обед с 13-00 до 13-48. Выходные дни- суббота, воскресенье.;;;Нет;Нет
1508208;Федерация армспорта Тульской области, общественная организация;Другое;;;Тульская обл., Алексинский р-н, Алексин г., ул. Героев-Алексинцев, 9, оф. 22;54.500432;37.065378;+7 (48753) 4-79-28;org;;;;Нет;Нет
1508209;Квазар-С;Другое;;;Тульская обл., Алексинский р-н, Алексин г., ул. Героев-Алексинцев, 8, оф. 22;54.499674;37.063887;+7 (48753) 4-79-28;org;;;;Нет;Нет
1508210;Руссичъ;Другое;;;Тульская обл., Алексинский р-н, Алексин г., ул. Октябрьская, 1;54.498047;37.062899;+7 (48753) 4-17-94;org;;;;Нет;Нет
1508211;Алексинский центр геодезии и землеустройства;Другое;;;Тульская обл., Алексинский р-н, Алексин г., ул. Героев-Алексинцев, 8а;54.499062;37.063087;+7 (48753) 4-42-48;org;;;;Нет;Нет
1508212;Центр ГИМС МЧС России по Тульской области, инспекторский участок №1 г. Алексин;Органы надзора и контроля, инспекции;http://gims3.ucoz.ru;;Тульская обл., Алексинский р-н, Алексин г., ул. Пионерская, 2, каб. 7;54.497185;37.06677;+7 (48753) 4-14-74;org;приемный день - четверг;;;Нет;Нет
1508213;Комитет территориального общественного самоуправления 10;Администрация района;;;Тульская обл., Алексинский р-н, Алексин г., ул. Ленина, 19;54.500845;37.067812;+7 (48753) 4-76-47;org;;;;Нет;Нет
1508215;Оконная компания Алексин-Хамелион;Окна и балконы;http://aleksinokna.ru;;Тульская обл., Алексин г., ул. Пахомова, 19;54.500594;37.06633;+7 (48753) 4-33-50;org;пн-пт 9:00-17:00;;;Нет;Нет
1508216;АлексинЭнергоСервис;Другое;;;Тульская обл., Алексинский р-н, Алексин г., ул. Ленина, 19;54.500845;37.067812;+7 (48753) 4-25-48;org;;;;Нет;Нет
1508217;ВДПО, общероссийская общественная организация, ТОО, Алексинское районное отделение;Другое;;;Тульская обл., Алексинский р-н, Алексин г., ул. Зои Космодемьянской, 4а;54.494779;37.060985;+7 (48753) 4-89-78;org;;;;Нет;Нет
1508218;Муниципальный фонд местного развития;Другие структуры;;;Тульская обл., Алексинский р-н, Алексин г., ул. Пахомова, 19;54.500594;37.06633;+7 (48753) 4-09-41;org;Обед 12:00-12:48;;;Нет;Нет
1508220;Филиал ФГКУ УВО УМВД России по Тульской области - ОВО по Алексинскому району;Безопасность и охрана;http://uvo-tula.ru;;Тульская обл., Алексин г., ул. Пахомова, 11;54.501101;37.07004;+7 (48753) 4-10-97;org;;;;Нет;Нет
1508221;Макро;Другое;;;Тульская обл., Алексинский р-н, Алексин г., ул. Героев-Алексинцев, 8;54.499674;37.063887;+7 (48753) 4-04-50;org;;;;Нет;Нет
1508222;Администрация МО г. Алексин, Отдел по организации закупок;Администрация района;;;Тульская обл., Алексинский р-н, Алексин г., ул. Героев-Алексинцев, 10;54.498445;37.064677;+7 (48753) 4-01-61;org;"Перерыв на обед с 13-00 до 13-48. Выходные дни- суббота, воскресенье.
";;;Нет;Нет
1508223;Газовик;Другое;;;Тульская обл., Алексин г., ул. Пионерская, 7;54.496594;37.064075;+7 (905) 620-75-26;org;пн-пт 9:00-18:00;;;Нет;Нет
1508224;Территориальный фонд обязательного медицинского страхования Тульской области, Алексинский филиал;Страховые компании;http://www.omstula.ru;;Тульская обл., Алексин г., ул. Октябрьская, 1;54.498047;37.062899;+7 (48753) 4-45-49;org;"пн-чт 8:30-17:30; пт 8:30-16:30";;;Нет;Нет
1508225;МБУ ДО «ДЮСШ 1»;"Спортивные центры, клубы; Спортивные школы; Спортивные секции";http://dush1.obraleksin.ru;aleksin.dush1@tularegion.org;Тульская обл., Алексинский р-н, Алексин г., ул. Пионерская, 29;54.494894;37.060743;+7 (48753) 4-89-65;org;;;;Нет;Нет
1508227;Мебельный магазин Венеция;"Мягкая мебель; Корпусная мебель";;;Тульская обл., Алексин г., ул. Героев Алексинцев, 21а;54.496876;37.065234;+7 (48753) 4-74-94;org;ежедневно, 10:00-19:00;;;Нет;Нет
1508228;Идеаль Натяжные Потолки;Другое;http://идеаль-потолок.рф;;Тульская обл., Алексинский р-н, Алексин, ул. Пахомова, 11а;54.501096;37.072097;+7 (48753) 4-45-85;org;"пн-пт 10:00-18:00; сб 10:00-15:00";;;Нет;Нет
1508229;Главное бюро медико-социальной экспертизы по Тульской области, ФКУ, филиал № 5;Оценка эксперта;;;Тульская обл., Алексинский р-н, Алексин г., ул. Ленина, 18;54.499433;37.06722;+7 (48753) 4-77-00;org;;;;Нет;Нет
1508230;Единая дежурно-диспетчерская служба;Аварийные службы;;;Тульская обл., Алексинский р-н, Алексин г., ул. Пионерская, 2;54.497185;37.06677;112, +7 (48753) 4-18-49;org;;;;Нет;Нет
1508232;АлексинСпецТранс;Транспорт и логистика, грузоперевозки;http://aleksintrans.ucoz.com;;Тульская обл., Алексин г., Героев Алексеенцев, 8, оф. 26;54.499674;37.063887;+7 (48753) 5-67-07;org;ежедневно, 9:00-20:00;;;Нет;Нет
1508233;Магазин № 10, Алексинское РАЙПО;Продукты;;;Тульская обл., Алексинский р-н, Алексин г., ул. Торговая, 2;54.506825;36.966887;+7 (48753) 5-82-51;org;;;;Нет;Нет
1508234;Сбербанк России;Сбербанк России;http://www.sberbank.ru;;Тульская обл., Алексин г., ул. Тульская, 129;54.510332;37.114048;8 (800) 555-55-50, +7 (495) 500-55-50;org;"пн-пт 8:30-18:00; сб 9:00-16:30; вс 9:00-14:00";;;Нет;Нет
1508235;Зефир;"Кафе; Бизнес-ланч; Кальян";;;Тульская обл., Алексин г., ул. Тульская, 135б, ТЦ Комсомольский;54.509423;37.117786;+7 (910) 161-67-89;org;ежедневно, 11:30-0:00;;;Нет;Нет
1508237;Связной;Салоны связи Связной;http://www.svyaznoy.ru;;Тульская обл., Алексин г., ул. Тульская, 136а;54.508984;37.117031;8 (800) 700-43-43, 8 (800) 700-50-00;org;"пн-пт 9:00-19:00; сб,вс 9:00-20:00";;;Нет;Нет
1508238;Сбербанк России, банкомат;Сбербанк России;http://www.sberbank.ru;;Тульская обл., Алексин г., ул. Тульская, 136д;54.50802;37.11668;8 (800) 555-55-50;org;ежедневно, 9:00-18:00;;;Нет;Нет
1508239;Атом;Театры;http://atomteatr.a5.ru;;Тульская обл., Алексин г., ул. Дубравная, здание СОШ № 2;54.51245;37.118988;+7 (953) 9685584;org;пт,сб 16:00-20:00;;;Нет;Нет
1508240;Сбербанк России, банкомат;Сбербанк России;http://www.sberbank.ru;;Тульская обл., Алексин г., ул. Тульская, 129, ОСБ;54.510306;37.113973;8 (800) 555-55-50;org;ежедневно, круглосуточно;;;Нет;Нет
1508241;ВТБ 24, банкомат;ВТБ;http://www.vtb24.ru;;Тульская обл., Алексин г., ул. Тульская, 131, Дикси;54.520227;37.103871;8 (800) 100-24-24;org;;;;Нет;Нет
1508242;ВТБ 24, банкомат;ВТБ;http://www.vtb24.ru;;Тульская обл., Алексин г., ш. Генерала Короткова, 2, Магнит;54.509099;37.120103;8 (800) 100-24-24;org;;;;Нет;Нет
1508243;ЖЭУ;Другое;;;Тульская обл., Алексинский р-н, Алексин г., ул. Дубравная, 25, корп.2;54.514326;37.118495;+7 (48753) 6-41-57;org;;;;Нет;Нет
1508244;Стоматолог плюс;Стоматология;http://www.stomatolog-aleksin.ru;;Тульская обл., Алексинский р-н, Алексин, ул. Тульская, 123б (ТЦ Элизе);54.510918;37.111174;+7 (48753) 6-58-94, +7 (920) 7738938;org;"пн-пт 9:00-17:00; сб 9:00-14:00";;;Нет;Нет
1508245;Сбербанк России, банкомат;Сбербанк России;http://www.sberbank.ru;;Тульская обл., Алексин г., ул. Тульская, 131, маг. Дикси;54.509907;37.115055;8 (800) 555-55-50;org;ежедневно, 9:00-22:00;;;Нет;Нет
1508246;ВТБ 24, банкомат;ВТБ;http://www.vtb24.ru;;Тульская обл., Алексин г., ул. Тульская, 131а, Пятерочка;54.509721;37.116645;8 (800) 100-24-24;org;ежедневно, 9:00-22:00;;;Нет;Нет
1508247;Салон-магазин МТС;Салоны связи МТС;http://www.tula.mts.ru;;Тульская обл., Алексин г., ул. Тульская, 131, стр. А;54.509633;37.116718;8 (800) 250-08-90;org;"пн-пт 9:00-20:00; сб,вс 10:00-19:00";;;Нет;Нет
1508248;Томато;"Доставка еды; Кафе";http://www.tomato-pizza.ru;;Тульская обл., Алексин, ул. Тульская, 131а;54.509674;37.11644;+7 (48753) 6-47-85;org;"пн-чт 11:00-22:00; пт,сб 11:00-0:00; вс 11:00-23:00";;;Нет;Нет
1508249;Дикси;Дикси;http://www.dixy.ru;;Тульская обл., округ Алексин, Алексин, ул. Тульская, 131;54.5103;37.1149;8 (800) 333-02-01;org;ежедневно, 9:00-22:00;;;Нет;Нет
1508250;Отделение почтовой связи Алексин 301367;Почта;http://www.russianpost.ru;;Тульская обл., Алексинский р-н, Алексин г., ул. Тульская, 133, корп.2а;54.511559;37.11643;+7 (48753) 6-61-14, ;org;вт-сб 9:00-18:00, перерыв 13:00-15:00;2 МКР;;Нет;Нет
1508251;ГУ ТО Алексинская Рвсббж;Ветлечебницы, ветеринарные врачи;;;Тульская обл., Алексинский р-н, Алексин, ул. Тульская, 137;54.508916;37.122448;+7 (48753) 6-67-76;org;;;;Нет;Нет
1508252;Зеленый свет;"Автошколы; Автошколы";http://www.zeleniy-svet.ru;;Тульская обл., Алексинский р-н, Алексин г., ул. Тульская, 123б;54.510918;37.111174;+7 (920) 775-00-55;org;10:00-17:00;;;Нет;Нет
1508253;Алексинская ветеринарная станция по борьбе с болезнями животных, ГУ ТО;Ветлечебницы, ветеринарные врачи;;;Тульская обл., Алексинский р-н, Алексин г., ул. Тульская, 137;54.508776;37.122515;+7 (48753) 6-62-64;org;Перерыв 12:00-13:00;;;Нет;Нет
1508254;PickPoint;Другое;http://www.pickpoint.ru;;Тульская обл., Алексин г., ул. Тульская, 28;54.514885;37.092274;8 (800) 700-79-09;org;пн-пт 9:00-18:00;;;Нет;Нет
1508255;Мебель мягкая корпусная ведущих производителей;Торговые центры и торгово-развлекательные комплексы;http://global-comfort.mebmagazin.com;;Тульская обл., Алексин, ул. Тульская, 134а;54.509293;37.114544;+7 (48753) 6-55-84;org;ежедневно, 10:00-19:00;;;Нет;Нет
1508256;Автоцентр Рулевой;Другое;;;Тульская обл., Алексин, ш. Генерала Короткова, 4;54.509748;37.123481;+7 (48753) 6-63-22;org;ежедневно, 8:00-20:00;;;Нет;Нет
1508257;Стальные двери Torex;Двери;http://torex.ru;;Тульская обл., Алексин г., ул. Энгельса, 28;54.511652;37.113342;+7 (953) 966-78-88, 8 (800) 100-45-05;org;"пн-пт 9:00-19:00; сб,вс 9:00-18:00";;;Нет;Нет
1508259;Ветеринарная клиника Ас-Вет;"Ветлечебницы, ветеринарные врачи; Ветеринарные аптеки; Зоопарикмахерские";http://as-vet.ru;;Тульская обл., Алексин г., ул. Ломоносова, 6;54.508927;37.104895;+7 (953) 186-50-80;org;"пн-пт 9:00-19:00; сб,вс 10:00-17:00";;;Нет;Нет
1508260;Tele2;Салон связи Теле2;http://tula.tele2.ru;;Тульская обл., Алексин г., ул. Тульская, 131;54.510009;37.115827;;org;ежедневно, 9:00-20:00;;;Нет;Нет
1508261;Компания Лабазъ;Другое;http://www.stroy-labaz.ru;;Тульская обл., Алексинский р-н, Алексин г., ул. Тульская, 137а;54.508754;37.122035;+7 (48753) 6-58-18;org;;;;Нет;Нет
1508262;Зенит;Другое;http://zenitbet.com;;Тульская обл., Алексин, ул. Тульская;54.509712;37.11301;+7 (906) 643-60-23;org;ежедневно, 10:00-1:00;;;Нет;Нет
1508263;Пятёрочка;Пятёрочка;http://www.pyaterochka.ru;;Тульская обл., Алексин г., ул. Тульская, 131, А;54.510072;37.114812;8 (800) 555-55-05;org;Круглосуточно;;;Нет;Нет
1508264;Твой дом;Хозтовары;http://aleksin1.allskan.ru;;Тульская обл., Алексин, ул. Тульская, 136б;54.508979;37.117022;+7 (48753) 6-61-20;org;ежедневно, 9:00-18:00;;;Нет;Нет
1508266;Да!;Продукты;http://market-da.ru;;Тульская обл., Алексин г., ул. Тульская, 125;54.511138;37.112342;+7 (495) 664-40-42;org;ежедневно, 8:00-22:00;;;Нет;Нет
1508267;Contact;Другое;http://www.contact-sys.com;;Тульская обл., округ Алексин, Алексин, ул. Тульская, 131;54.510072;37.114812;8 (800) 555-00-91, 8 (800) 200-42-42;org;"пн-пт 9:00-19:00; сб,вс 9:00-17:00";;;Нет;Нет
1508269;Щит;Другое;http://1171.priem22.ru;;Тульская обл., Алексинский р-н, Алексин, ул. Ломоносова, 6;54.508927;37.104895;+7 (48753) 6-30-47;org;пн-пт 9:00-18:00;;;Нет;Нет
1508271;Ригла;Аптеки;http://www.rigla.ru;;Тульская обл., Алексин г., ш. Генерала Короткова, 2А;54.509141;37.12013;+7 (962) 277-64-41;org;;;;Нет;Нет
1508272;Grand Line;Другое;http://www.grandline.ru;;Тульская обл., Алексинский р-н, Алексин г., ул. Болотова, 2г;54.50627;37.12384;+7 (962) 278-88-57;org;"пн-пт 9:00-18:00; сб 10:00-15:00";;;Нет;Нет
1508273;Vivo Porte;Двери;http://www.vivo-porte.ru;;Тульская обл., Алексинский р-н, Алексин г., ул. Тульская, 136, ТЦ Слобода 2;54.508979;37.117022;+7 (952) 016-87-00;org;;;;Нет;Нет
1508274;Профиль;Другое;http://alexin.pro-ptr.ru;;Тульская обл., Алексинский р-н, Алексин, ул. Тульская, 136е;54.50802;37.116714;+7 (961) 262-18-16;org;;;;Нет;Нет
1508275;Дикси;Дикси;http://www.dixy.ru;;Тульская обл., округ Алексин, Алексин, ул. Тульская;54.509545;37.113699;8 (800) 333-02-01;org;ежедневно, 9:00-22:00;;;Нет;Нет
1508276;СтройСнаб;Другое;http://www.стройснаб71.рф;;Тульская обл., Алексинский р-н, Алексин г., ул. Тульская;54.511718;37.105955;+7 (910) 157-63-73;org;пн-пт 10:00-18:00;;;Нет;Нет
1508277;Юлмарт Аутпост, пункт выдачи;Другое;http://www.ulmart.ru;;Тульская обл., округ Алексин, Алексин, ул. Тульская, 135б, ТЦ Комсомольский, эт. 1;54.509423;37.117786;+7 (4872) 74-00-78;org;"пн-сб 10:00-20:00, перерыв 13:00-13:30; вс 10:00-19:00, перерыв 13:00-13:30";;;Нет;Нет
1508278;Билайн;Салоны связи Билайн;http://www.beeline.ru;;Тульская обл., округ Алексин, Алексин, ул. Тульская, 135а;54.509471;37.117031;+7 (48753) 6-55-87, 8 (800) 700-06-11;org;ежедневно, 8:00-19:00;;;Нет;Нет
1508279;Лидер Плюс;Агентства недвижимости;;;Тульская обл., Алексинский р-н, Алексин, ул. Дубравная, 29а;54.51154;37.124568;+7 (906) 535-04-57;org;ежедневно, круглосуточно;;;Нет;Нет
1508280;Агросоюз;Банк Агросоюз;http://www.asbank.ru;;Тульская обл., Алексинский р-н, Алексин г., ул. Тульская, 131;54.51001;37.115826;8 (800) 555-00-91;org;"пн-пт 9:00-19:00; сб,вс 9:00-17:00";Многофункциональный банковский офис пункт обслуживания клиентов ООО КБ «Агросоюз»;;Нет;Нет
1508281;Alvelli.ru;"Интернет-магазины; Одежда";http://www.alvelli.ru;;Тульская обл., Алексин, ул. Тульская, 131, корп.2;54.510918;37.115279;+7 (953) 953-20-23;org;ежедневно, 9:00-19:00;;;Нет;Нет
1508282;Центральное отделение почтовой связи Алексин 301360;Почта;http://www.russianpost.ru;;Тульская обл., Алексинский р-н, Алексин г., ул. Тульская, 26;54.515152;37.091519;+7 (48753) 6-18-77, +7 (48753) 6-30-08;org;"пн-пт 8:00-20:00; сб 9:00-18:00; вс 9:00-14:00";МКР Старый город;;Нет;Нет
1508285;ОкноПром;"Окна и балконы; Двери";http://www.oknoprom71.ru;;Тульская обл., Алексинский р-н, Алексин, ул. Тульская, 131а;54.509721;37.116645;+7 (910) 552-09-92;org;;;;Нет;Нет
1508286;Газпромбанк, банкомат;"Банки и банкоматы; Газпромбанк";http://www.gazprombank.ru;;Тульская обл., Алексин, ш. Генерала Короткова, 2а, гипермаркет Магнит;54.509255;37.120169;8 (800) 100-07-01;org;ежедневно, 10:00-21:00;;;Нет;Нет
1508287;Магазин № 1 Вероника;Продукты;;;Тульская обл., Алексинский р-н, Алексин г., ул. Дубравная, 23;54.514436;37.114085;+7 (48753) 6-54-53;org;;;;Нет;Нет
1508288;Твой доктор;Аптеки;;;Тульская обл., Алексинский р-н, Алексин г., ул. Тульская, 135Б;54.509423;37.117786;+7 (48753) 6-42-67;org;;;;Нет;Нет
1508289;Home Market;Супермаркеты и гипермаркеты;;;Тульская обл., Алексин г., ул. Тульская, 131;54.509996;37.115926;8 (800) 770 70 76;org;ежедневно, 9:00-19:00;;;Нет;Нет
1508290;Свято-Никольский храм;Церкви, храмы, монастыри;;;Тульская обл., Алексинский р-н, Алексин г., ул. Советская, 43;54.5135;37.094447;+7 (48753) 6-09-88;org;;;;Нет;Нет
1508291;Стальные двери Контур;Двери;http://www.dveri-kontur.ru;;Тульская обл., Алексин, ул. Тульская, 136д;54.508059;37.116402;+7 (48753) 6-61-53, +7 (920) 773-91-38, +7 (48753) 6-46-55;org;ежедневно, 9:00-18:00;;;Нет;Нет
1508292;Старая мельница;"Кафе; Бани и сауны; Банкеты";;;Тульская обл., Алексинский р-н, Алексин г., ул. Тульская, 123;54.511159;37.111093;+7 (48753) 6-20-65,  +7(48753)64787;org;;;;Нет;Нет
1508293;Юнистрим;Другое;http://www.unistream.ru;;Тульская обл., Алексин г., ул. Тульская, 135б;54.5091;37.1175;+7 (495) 777-55-45, 8 (800) 333-22-44;org;ежедневно, 8:00-22:00;;;Нет;Нет
1508294;Церковь Николая Чудотворца в Алексине;Церкви, храмы, монастыри;http://www.nikolski-hram.ru/;aleksin@nikolski-hram.ru;Тульская обл., Алексин г., ул. Советская, 43;54.513501;37.094544;+7 (48753) 6-09-88;org;;;;Нет;Нет
1508295;Лидер;Другое;http://www.leadermt.ru;;Тульская обл., Алексинский р-н, Алексин г., ул. Тульская, 135б;54.509423;37.117786;+7 (495) 777-55-45, 8 (800) 333-44-44;org;;;;Нет;Нет
1508296;Пульт ДУ;Бытовая техника и электроника;;;Тульская обл., Алексин г., ул. Тульская, 134а, ТЦ Техномир, эт. 1;54.509293;37.114543;+7 (953) 441-97-67;org;"пн-пт 10:00-19:00; сб,вс 9:00-19:00";;;Нет;Нет
1508297;Само;Другое;http://aleksin-mag.ru;;Тульская обл., Алексин г., ул. Советская, 25;54.514509;37.091276;+7 (48753) 6-00-94, +7 (903) 843-51-15;org;пн-сб 10:00-18:00;;;Нет;Нет
1508298;Stolline;"Мягкая мебель; Корпусная мебель";http://www.stolline.ru;;Тульская обл., Алексин г., ул. Тульская, 136д;54.508045;37.116608;+7 (915) 695-94-64, +7 (915) 685-53-88;org;ежедневно, 10:00-18:00;;;Нет;Нет
1508299;Магнит;Магнит;http://www.magnit-info.ru;;Тульская обл., Алексин г., ш. Генерала Короткова, 2а;54.509179;37.120074;8 (800) 200-90-02;org;ежедневно, 7.30 до 01.00;;;Нет;Нет
1508300;Магазин Алекс-Плюс;Другое;;;Тульская обл., Алексинский р-н, Алексин г., ул. Тульская, 134а;54.509293;37.114543;+7 (48753) 6-55-84;org;;;;Нет;Нет
1508301;Альянс Мастеров;Мягкая мебель;http://мастер-маг.рф;;Тульская обл., Алексин, ул. Тульская, 136а;54.508979;37.117022;+7 (48753) 4-32-02, +7 (48753) 6-60-66, +7 (48753) 6-07-07;org;ежедневно, 10:00-18:00;;;Нет;Нет
1508303;Квик-Техномир;Бытовая техника и электроника;http://www.kvik-tehnomir.ru;;Тульская обл., Алексин, ул. Тульская, 134а;54.509293;37.114543;+7 (48753) 6-40-32;org;"пн-пт 10:00-19:00; сб,вс 9:00-19:00";;;Нет;Нет
1508304;Свет De Luxe;Другое;;;Тульская обл., Алексин, ул. Тульская, 123б;54.510918;37.111176;+7 (48753) 6-57-50;org;ежедневно, 9:00-19:00;;;Нет;Нет
1508306;Кухонный Двор;Мебель на заказ;http://www.kuxni.net;;Тульская обл., Алексин г., ул. Тульская, 134, ТЦ Элекс Плюс, эт. 2;54.508524;37.11466;+7 (920) 270-11-11, +7 (48753) 6-55-84;org;"пн-пт 10:00-19:00; сб,вс 9:00-19:00";;;Нет;Нет
1508307;Рекламно-издательский журнал Алексин life;Другое;;;Тульская обл., Алексинский р-н, Алексин г., ул. Фридриха Энгельса, 10, оф. 1;54.506078;37.109827;+7 (950) 927-77-08;org;;;;Нет;Нет
1508308;Shell (2МКР);Автомобильные заправочные станции (АЗС, АГЗС);http://www.shell.com.ru;;Тульская обл., Алексин г., ш. Генерала Короткова, 2а;54.50889;37.12082;+7 (48753) 6-52-15;org;ежедневно, круглосуточно;МКР Шахтерский;;Нет;Нет
1508309;Интердизайн;Корпусная мебель;http://www.id-mebel.ru;;Тульская обл., Алексин г., ул. Тульская, 136, литера д, ТК Слобода 2;54.508059;37.116402;8 (800) 700-80-34;org;;;;Нет;Нет
1508310;РусОкна;Окна и балконы;http://rusokna71.ru;;Тульская обл., Алексин, ул. Тульская, 131а;54.509721;37.116645;+7 (48753) 6-54-30, +7 (910) 552-09-92;org;вт-сб 9:00-18:00;;;Нет;Нет
1508311;Щукарь;Охота и рыбалка;;;Тульская обл., Алексинский р-н, Алексин, ул. Тульская, 135б;54.509423;37.117786;+7 (910) 151-05-11;org;ежедневно, 10:00-19:00;;;Нет;Нет
1508312;Lambre;Другое;http://www.lambre.eu;;Тульская обл., Алексинский р-н, Алексин г., ул. Тульская, 137б;54.508916;37.122448;;org;;;;Нет;Нет
1508313;A-z;Другое;;;Тульская обл., Алексин г., ул. Тульская, 141, оф. 20;54.507545;37.125183;+7 (953) 180-87-13, +7 (953) 188-99-33;org;пн-сб 9:30-18:00;;;Нет;Нет
1508314;Алексинский художественно-краеведческий музей, МБУК;Музеи;;;Тульская обл., Алексинский р-н, Алексин г., ул. Советская, 38;54.513166;37.093747;+7 (48753) 6-03-74;org;;;;Нет;Нет
1508315;Будь Здоров;Аптеки;http://www.rigla.ru/about/bud_zdorov/;;Тульская обл., Алексин г., ул. Тульская, 131;54.5101;37.1148;+7 (905) 116-64-06, 8 (800) 777-03-03;org;ежедневно, круглосуточно;;;Нет;Нет
1508316;Альфа Страхование-ОМС;Страховые компании;http://alfastrahoms.ru;;Тульская обл., округ Алексин, Алексин, ш. Генерала Короткова, 4;54.509797;37.123688;8 (800) 555-10-01, +7 (48753) 6-48-23;org;"пн,вт 8:30-17:00; ср 8:30-18:00; чт,пт 8:30-17:00";;;Нет;Нет
1508317;МегаФон;Салоны связи Мегафон;http://www.megafon.ru;;Тульская обл., Алексин, ул. Тульская, 135б;54.509224;37.114747;8 (800) 550-05-00;org;ежедневно, 10:00-20:00;;;Нет;Нет
1508318;АвтоПижон;Другое;http://автопижон.рф;;Тульская обл., Алексинский р-н, Алексин г., ул. Тульская, 121а;54.511018;37.110563;+7 (919) 073-85-68, +7 (903) 037-78-09;org;пн-сб 9:00-19:00;;;Нет;Нет
1508319;Церковь Христиан Адвентистов Седьмого Дня;Другое;http://adventist.ru;;Тульская обл., округ Алексин, Алексин, ул. Тульская, 96;54.511734;37.104257;;org;;;;Нет;Нет
1508320;Окадом;Другое;http://oka-dom.com;;Тульская обл., Алексинский р-н, Алексин г., ул. Тульская, 141;54.507688;37.125188;+7 (48753) 6-40-21;org;;;;Нет;Нет
1508321;Будь Здоров;Аптеки;http://www.rigla.ru/about/bud_zdorov/;;Тульская обл., Алексин г., ул. Тульская, 132в;54.5089;37.1128;+7 (905) 116-64-17, 8 (800) 777-03-03;org;ежедневно, круглосуточно;;;Нет;Нет
1508324;Автосалон;"Страховые компании; Официальные дилеры";;;Тульская обл., Алексин г., ул. Тульская, 95а;54.512345;37.104032;+7 (915) 682-34-67;org;ежедневно, 10:00-18:00;;;Нет;Нет
1508325;АвтоМотоСервис;"Шиномонтаж; Автосервисы; Развал схождение; Автозапчасти; Запчасти на заказ";;;Тульская обл., Алексин г., ул. Тульская, 95а;54.512345;37.104032;+7 (905) 119-70-44;org;пн-сб 9:00-18:00;;;Нет;Нет
1508326;Русский займ;Ломбарды;http://lombrus.ru;;Тульская обл., Алексин, ул. Тульская, 136а;54.508979;37.117022;8 (800) 250-09-19;org;"пн-пт 9:00-18:00; сб 9:00-14:00";;;Нет;Нет
1508327;Белорусские кухни;Мебель на заказ;;;Тульская обл., Алексин г., ул. Тульская, 123б;54.510918;37.111174;+7 (487) 536-54-14;org;;;;Нет;Нет
1508328;Слобода-2, торговый комплекс;Торговые центры и торгово-развлекательные комплексы;;;Тульская обл., Алексинский р-н, Алексин г., ул. Тульская, 136д;54.508059;37.116402;+7 (48753) 6-68-06;org;;;;Нет;Нет
1508329;Роспечать;Роспечать;http://www.rosp.ru;;Тульская обл., Алексин г., ул. Тульская улица, 131к2;54.510918;37.115279;;org;;;;Нет;Нет
1508330;Автовокзал г. Алексин;Другое;;;Тульская обл., Алексинский р-н, Алексин г., ул. Короткова, 4;54.509639;37.123263;+7 (48753) 6-66-96;org;;;;Нет;Нет
1508331;Cartula;Другое;http://www.cartula.ru;;Тульская обл., Алексин, ул. Тульская, 136а;54.508979;37.117022;+7 (919) 070-98-55, +7 (909) 263-79-79;org;"пн-пт 10:00-18:00; сб 10:00-16:00";;;Нет;Нет
1508332;Уютный дом;Мягкая мебель;;;Тульская обл., Алексин г., ул. Тульская, 133, корп.2а;54.510934;37.116079;+7 (952) 016-46-41;org;пн-пт 10:00-19:00;;;Нет;Нет
1508333;Цвет Диванов;"Мягкая мебель; Интернет-магазины; Корпусная мебель";http://www.zvet.ru;;Тульская обл., округ Алексин, Алексин, ул. Тульская, 134а;54.509293;37.114543;+7 (953) 196-60-50, 8 (800) 700-77-88;org;"пн-пт 10:00-19:00; сб,вс 9:00-19:00";;;Нет;Нет
1508334;Мастер-Альянс;Другое;http://kolodec-topas.ru;;Тульская обл., Алексин, ул. Ломоносова, 6;54.508927;37.104895;+7 (920) 271-87-37;org;ежедневно, 8:00-21:00;;;Нет;Нет
1508335;Московский индустриальный банк, банкомат;Московский индустриальный банк;http://www.minbank.ru;;Тульская обл., Алексин г., ул. Тульская, 131а;54.509721;37.116645;+7 (4872) 34-14-73, 8 (800) 100-74-74;org;;;;Нет;Нет
1508336;Директория маркетинга;Консалтинг;http://counselor.ucoz.ru;;Тульская обл., Алексин г., ул. Тульская, 131;54.510072;37.114812;+7 (903) 844-71-01, +7 (915) 680-37-71;org;пн-пт 10:00-18:00;;;Нет;Нет
1508338;Евросеть;Салоны связи Евросеть;http://euroset.ru;;Тульская обл., Алексин, Тульская 131;54.510072;37.114812;8 (800) 700-00-10;org;ежедневно, 9:00-21:00;;;Нет;Нет
1508339;Столярный цех Интерьер;Мебель на заказ;http://derevorus.ru;;Тульская обл., Алексин г., ул. Тульская, 140;54.506261;37.120885;+7 (48753) 6-69-08, +7 (906) 533-00-64, +7 (953) 192-68-88;org;пн-сб 9:00-18:00;;;Нет;Нет
1508340;Компания Профстрой;"Окна и балконы; Двери";http://profstroyokna.ru;;Тульская обл., Алексин г., ул. Тульская, 136, Слобода, пав. 12А;54.508979;37.117022;+7 (906) 625-55-55;org;"пн-пт 9:00-18:00; сб 9:00-15:00";;;Нет;Нет
1508341;Фотостудия, ИП Фролов В.В.;Другое;;;Тульская обл., Алексинский р-н, Алексин г., ул. Тульская, 133, корп.2а;54.510934;37.116079;+7 (903) 697-75-95;org;;;;Нет;Нет
1508342;ТМК;"Окна и балконы; Двери";http://tmk-okna.ru;;Тульская обл., округ Алексин, Алексин, ул. Тульская, 136а;54.508916;37.116843;8 (800) 555-93-25, +7 (920) 769-00-69;org;;;;Нет;Нет
1508343;Белорусские кухни;Мебель на заказ;;;Тульская обл., Алексин г., ул. Тульская, 136а;54.508979;37.117022;+7 (953) 955-96-57;org;;;;Нет;Нет
1508344;Дом дверей;"Мебель на заказ; Двери";;;Тульская обл., Алексин г., ул. Болотова, 2б;54.505936;37.1236;+7 (953) 958-48-84;org;ежедневно, 8:00-18:00;;;Нет;Нет
1508345;ОкнаСтрой;Окна и балконы;http://oknastroy71.ru;;Тульская обл., Алексин г., ул. Тульская, 136а;54.50828;37.116364;+7 (48753) 6-46-26;org;"пн-пт 10:00-18:00; сб 10:00-15:00";;;Нет;Нет
1508346;Еженедельная газета Перекресток;Другое;http://perekrestok71.ru;;Тульская обл., Алексин г., ул. Тульская, 134а;54.509293;37.114543;+7 (920) 776-56-85;org;пн-пт 10:00-17:00;;;Нет;Нет
1508347;Колибри;Кафе;;;Тульская обл., Алексинский р-н, Алексин г., ул. Фридриха Энгельса, 24а;54.508577;37.111704;+7 (48753) 6-61-67;org;чт-вс 12:00-2:00;;;Нет;Нет
1508348;Уютерра;"Хозтовары; Товары для дома";http://www.yuterra.ru;;Тульская обл., Алексинский р-н, Алексин г., ул. Тульская, 131а;54.509721;37.116645;+7 (48753) 6-20-66, +7 (48753) 6-10-60, 8 (800) 100-71-71;org;ежедневно, 9:00-21:00;;;Нет;Нет
1508349;Страховой Дом;"Страховые компании; Юридические услуги";http://www.strd71.ru;;Тульская обл., Алексин г., ул. Кутузова, 1;54.505796;37.107275;+7 (960) 614-91-11;org;"пн-пт 9:00-18:00; сб 9:00-16:00";;;Нет;Нет
1508350;Альфа страхование;Страховые компании;;;Тульская обл., Алексинский р-н, Алексин г., ш. Генерала Короткова, 4;54.509748;37.123481;+7 (48753) 6-48-04;org;пн-пт 8:30-17:00;;;Нет;Нет
1508351;Московский индустриальный банк, банкомат;Московский индустриальный банк;http://www.minbank.ru;;Тульская обл., Алексин г., ш. Генерала Короткова, 2;54.50913;37.120148;+7 (4872) 34-14-73, 8 (800) 100-74-74;org;;;;Нет;Нет
1508352;Мир печи;Другое;http://mir-pechi.net;;Тульская обл., Алексинский р-н, Алексин, 10;54.512079;37.124685;+7 (919) 411-73-90;org;ежедневно, 9:00-18:00;;;Нет;Нет
1508353;Жемчужина;Турфирмы и экскурсии;http://www.4332433.ru;;Тульская обл., Алексин, ул. Тульская, 136д, оф. 4;54.508059;37.116402;+7 (953) 433-24-33;org;пн-сб 10:00-18:00;;;Нет;Нет
1508354;Строй-Проф;Другое;http://zaborstroidom.ru;;Тульская обл., Алексин г., ул. Тульская, 136а, оф. 15;54.507496;37.11668;+7 (910) 586-51-50;org;ежедневно, 8:00-19:00;;;Нет;Нет
1508355;Western Union;Другое;http://www.westernunion.ru;;Тульская обл., Алексин г., ул. Тульская, 133, корп.2а, ФГУП Почта России;54.510934;37.116079;8 (800) 200-22-32;org;вт-вс 9:00-20:00;;;Нет;Нет
1508356;ИП Харапуд В.В.;Другое;http://www.kvmolot.ru;;Тульская обл., Алексин, ул. Ломоносова, 6;54.508927;37.104895;+7 (950) 908-00-22;org;пн-сб 9:00-18:00;;;Нет;Нет
1508357;Contact;Другое;http://www.contact-sys.com;;Тульская обл., округ Алексин, Алексин, ул. Тульская, 135б;54.509423;37.117786;+7 (495) 777-55-45, 8 (800) 200-42-42;org;ежедневно, 10:00-19:30;;;Нет;Нет
1508358;Алексинский мясокомбинат;Другое;;;Тульская обл., Алексин г., ул. Ломоносова, 8;54.507829;37.104868;+7 (48753) 6-01-46;org;пн-пт 9:00-18:00;;;Нет;Нет
1508359;Вбунырях.РФ;Другое;http://www.vbunyrevo.ru;;Тульская обл., Алексин г., ул. Дубравная, 26;54.513547;37.116321;+7 (919) 074-29-29;org;ежедневно, круглосуточно;;;Нет;Нет
1508360;Компьютерный магазин Системник;Компьютеры и оргтехника;http://sistemnik71.ru;;Тульская обл., Алексин г., ул. Энгельса, 28;54.511655;37.113366;+7 (915) 688-20-05;org;ежедневно, 10:00-18:00;;;Нет;Нет
1508361;MoneyGram;Другое;http://ru.moneygraminfo.com;;Тульская обл., Алексин г., ул. Энгельса, 28, Сбербанк;54.511655;37.113366;8 (800) 500-92-53;org;"пн-пт 9:00-18:45; сб,вс 9:00-15:00";;;Нет;Нет
1508362;Алексинский РЭС, Тульские электрические сети, филиал Тулэнерго;Другое;;;Тульская обл., Алексинский р-н, Алексин г., Мельничный пер., 1;54.506951;37.102496;+7 (48753) 6-00-68;org;;;;Нет;Нет
1508363;Отдел военного комиссариата Тульской области по г. Алексину, Алексинскому и Дубенскому районам;Военкоматы;;;Тульская обл., Алексинский р-н, Алексин г., ул. Советская, 36;54.51338;37.092813;+7 (48753) 6-03-64, +7 (48753) 6-07-35, +7 (48753) 6-30-60;org;"Обед 13:00 до 14:00
Пятница не приемный день";;;Нет;Нет
1508364;Тульская энергосбытовая компания АО ТНС ЭнергоТула, Тульское отделение, Алексинский участок;Другое;;;Тульская обл., Алексинский р-н, Алексин г., Мельничный пер., 1;54.506951;37.102496;+7 (48753) 6-22-02;org;пн-сб 8:00-17:00;;;Нет;Нет
1508365;Мастер;Другое;http://monomax.su;;Тульская обл., Алексинский р-н, Алексин г., ул. Тульская, 136, ТЦ Слобода;54.508979;37.117022;+7 (4872) 71-77-97, +7 (980) 720-88-88;org;пн-пт 9:00-18:00;;;Нет;Нет
1508366;ИП Цыганков А.В.;Другое;;;Тульская обл., Алексин г., ш. Генерала Короткова, 9;54.51073;37.123499;+7 (953) 967-04-41;org;ежедневно, 9:00-18:00;;;Нет;Нет
1508367;Комитет территориального общественного самоуправления 1;Администрация района;;;Тульская обл., Алексинский р-н, Алексин г., ул. Дубравная, 26;54.513547;37.116321;+7 (48753) 6-42-32;org;;;;Нет;Нет
1508368;МБУК Алексинский районный дом культуры;Другое;;;Тульская обл., Алексинский р-н, Алексин г., ул. Советская, 38;54.513166;37.093747;+7 (48753) 6-07-66;org;"вт-пт 9:00-18:00; сб 9:00-17:00";;;Нет;Нет
1508369;MoneyGram;Другое;http://ru.moneygraminfo.com;;Тульская обл., Алексин, ул. Тульская, 131, Евросеть;54.510072;37.114812;8 (800) 500-92-53;org;ежедневно, 9:00-20:00;;;Нет;Нет
1508370;MoneyGram;Другое;http://ru.moneygraminfo.com;;Тульская обл., Алексин, ул. Тульская, 136а, МТС;54.508979;37.117022;8 (800) 500-92-53;org;"пн-пт 9:00-20:00; сб,вс 10:00-19:00";;;Нет;Нет
1508372;Ювелирный магазин;Ювелирные магазины и мастерские;;;Тульская обл., Алексинский р-н, Алексин, ш. Генерала Короткова, 2а;54.509105;37.120085;+7 (915) 698-33-12;org;ежедневно, 10:00-19:00;;;Нет;Нет
1508374;ТД Капитал;Другое;;;Тульская обл., Алексинский р-н, Алексин г., ул. Тульская, 35д;54.514546;37.093549;+7 (48753) 6-57-66;org;;;;Нет;Нет
1508375;Алексинский хлебокомбинат;Другое;;;Тульская обл., Алексинский р-н, Алексин г., ул. Кутузова, 2;54.505639;37.109827;+7 (48753) 6-04-05;org;;;;Нет;Нет
1508376;Western Union;Другое;http://www.westernunion.ru;;Тульская обл., Алексин г., ул. Тульская, 26, ФГУП Почта России;54.515152;37.091519;8 (800) 200-22-32;org;ежедневно, 8:00-21:00;;;Нет;Нет
1508377;Торговый центр Талисман в Алексине;Торговые центры и торгово-развлекательные комплексы;http://www.tc-talisman.ru/tenantry/shopping-centers-talisman/item-06.html;;Тульская обл., Алексин, ул. Тульская, 93;54.5148;37.0939;+7 (4872) 34-40-10;org;ежедневно, 9:00-20:00;;;Нет;Нет
1508378;Мото Парк;Дача, сад и огород;;;Тульская обл., Алексин, ул. Тульская, 123б;54.510918;37.111174;+7 (930) 899-43-33, +7 (930) 899-55-59;org;пн,вт,ср,пт,сб,вс 9:00-18:00;;;Нет;Нет
1508379;РИА АЛЕКСИН LIFE;Рекламные услуги;;;ул. Тульская д. 95а (территория автосервиса);54.512345;37.104032;+7 (950) 9277708, +7 (950) 9277709;org;пн-пт 9:00-18:00 (Предварительно звоните менеджеру);;;Нет;Нет
1508380;Никулинская ПМК;Другое;;;Тульская обл., Алексинский р-н, Алексин г., ул. Ломоносова, 6;54.508927;37.104895;+7 (48753) 6-25-78;org;;;;Нет;Нет
1508381;Универсал;Другое;;;Тульская обл., Алексинский р-н, Алексин г., ул. Тульская, 138;54.506731;37.122089;+7 (48753) 6-55-78;org;;;;Нет;Нет
1508382;Администрация МО г. Алексин, Комитет  по  культуре, молодежи и спорту;Администрация района;;;Тульская обл., Алексинский р-н, Алексин г., ул. Пионерская, 8;54.497242;37.063959;+7 (48753) 4-41-75;org;"Перерыв на обед с 13-00 до 13-48. Выходные дни- суббота, воскресенье.
";;;Нет;Нет
1508383;Компания Мир Приборов;Другое;http://mirpriborov.com;;Тульская обл., Алексинский р-н, Алексин, ш. Генерала Короткова, 9;54.510612;37.12333;+7 (953) 967-04-41, 8 (804) 333-38-00;org;пн-пт 9:00-18:00;;;Нет;Нет
1508384;Магазин Азарт;Одежда;;;Тульская обл., Алексинский р-н, Алексин г., ул. Тульская, 134;54.508524;37.11466;+7 (48753) 6-55-99;org;;;;Нет;Нет
1508385;Алексинский городской суд;Суды;;aleksinsky.tula@sudrf.ru;Тульская обл., Алексинский р-н, Алексин г., ул. Смирнова, 35в;54.514849;37.09946;+7 (48753) 6-23-41, +7 (48753) 6-02-38;org;обед с 13:00-14:00;;;Нет;Нет
1508386;Радиорелейная станция Тульского ОРТПЦ, филиал, ФГУП Российская Телевизионная и Радиовещательная Сеть;Другое;;;Тульская обл., Алексинский р-н, Алексин г., ул. Комсомольская, 8;54.506318;37.114848;+7 (48753) 6-15-74;org;;;;Нет;Нет
1508387;Бас Люкс;Другое;http://vmoskvu.su;;Тульская обл., Алексин г., ул. Ломоносова, 6, оф. 202;54.508927;37.104895;+7 (48753) 6-28-79, +7 (906) 535-35-35;org;пн-пт 10:00-18:00;;;Нет;Нет
1508388;Viva Деньги;Другое;http://www.vivadengi.ru;;Тульская обл., Алексинский р-н, Алексин г., ул. Тульская, 136а;54.50807;37.116386;8 (800) 550-77-66;org;пн-пт 9:00-18:00;;;Нет;Нет
1508389;Дом оптики;Другое;;;Тульская обл., Алексинский р-н, Алексин, ул. Тульская, 131;54.510072;37.114812;+7 (48753) 6-40-86;org;ежедневно, 9:00-18:30;;;Нет;Нет
1508390;Грузоперевозки в Алексине;Транспорт и логистика, грузоперевозки;http://tula.barahla.net/services/204/4127309.htm;;Тульская обл., Алексин г., ул. Тульская, 141;54.507688;37.125188;+7 (960) 613-53-13;org;ежедневно, 9:00-20:00;;;Нет;Нет
1508391;Алексинское ПАТП, филиал Тулаавтотранс;Другое;;;Тульская обл., Алексинский р-н, Алексин г., ул. Муралова, 45;54.511117;37.097969;+7 (48753) 6-23-76;org;;;;Нет;Нет
1508392;РА Pixel;Рекламные услуги;;;Тульская обл., Алексин г., ул. Ломоносова, 6;54.508927;37.104895;+7 (920) 277-59-99;org;ежедневно, 9:00-18:00;;;Нет;Нет
1508393;Детский островок;Магазины для детей;;;Тульская обл., Алексин г., ул. Тульская, 135б;54.509423;37.117786;+7 (920) 2775971;org;ежедневно, 10:00-20:00;;;Нет;Нет
1508394;Компалекс;"Интернет-магазины; Компьютеры и оргтехника";http://www.kompaleks.ru;;Тульская обл., Алексин г., ул. Ломоносова, 6, оф. 210;54.508927;37.104895;+7 (48753) 6-00-09, +7 (953) 960-00-09;org;ежедневно, 10:00-19:00;;;Нет;Нет
1508395;Мадам Подушкина;Интернет-магазины;http://www.madam-podushkina.ru;;Тульская обл., Алексин г., ул. Тульская, 136д;54.5073;37.1204;+7 (905) 111-11-07;org;ежедневно, 9:00-17:00;;;Нет;Нет
1508396;Геоинжстрой;Другое;;;Тульская обл., Алексинский р-н, Алексин г., ул. Ломоносова, 6;54.508927;37.104895;+7 (48753) 6-03-27;org;;;;Нет;Нет
1508397;Comepay;Платёжный терминал Comepay;http://www.comepay.ru;;Тульская обл., Алексинский р-н, Алексин г., ш. Генерала Короткова, 2;54.508869;37.120912;8 (800) 100-80-50;org;;;;Нет;Нет
1508406;Алексинстройконструкция;Другое;http://aleksin-ask.ru;;Тульская обл., Алексин, микрорайон Алексин-4, ул. Машиностроителей, 8;54.522505;37.033146;+7 (48753) 2-60-73, 8 (800) 500-56-50, +7 (48753) 2-71-35;org;пн-пт 8:00-16:30;;;Нет;Нет
1508407;Сбербанк России;Сбербанк России;http://www.sberbank.ru;;Тульская обл., Алексин г., ул. Арматурная, 14;54.520057;37.046939;8 (800) 555-55-50, +7 (495) 500-55-50;org;"пн 15:00-17:00; вт-пт 9:15-14:00; сб 9:30-14:00; вс 15:00-17:00";;;Нет;Нет
1508408;Тульская областная стоматологическая поликлиника, ГУЗ, филиал № 3 г. Алексин;Стоматология;;;Тульская обл., Алексинский р-н, Алексин г., ул. Арматурная, 3а;54.522359;37.041716;+7 (48753) 2-30-06;org;;;;Нет;Нет
1508409;ВТБ 24, банкомат;ВТБ;http://www.vtb24.ru;;Тульская обл., Алексин г., ул. Арматурная, 17А, Дикси;54.520791;37.046334;8 (800) 100-24-24;org;;;;Нет;Нет
1508410;Сбербанк России, банкомат;Сбербанк России;http://www.sberbank.ru;;Тульская обл., Алексин г., ул. Арматурная, 14;54.51996;37.04694;8 (800) 555-55-50;org;ежедневно, круглосуточно;;;Нет;Нет
1508411;ГПОУ ТО Алексинский машиностроительный техникум;Другое;http://aleksin-amt.ru;;Тульская обл., Алексин г., ул. Гремицы, 8а;54.522348;37.035707;+7 (48753) 2-73-06, +7 (48753) 9-12-10;org;пн-пт 8:00-17:00;;;Нет;Нет
1508412;Дикси;Дикси;http://www.dixy.ru;;Тульская обл., округ Алексин, Алексин, ул. Арматурная, 17а;54.5209;37.0454;8 (800) 333-02-01;org;ежедневно, 10:00-22:00;;;Нет;Нет
1508413;Поликлиника 2;Поликлиники;;;Тульская обл., Алексинский р-н, Алексин г., ул. Центральная, 13а;54.518345;37.04946;+7 (48753) 2-30-79, +7 (48753) 2-30-82, +7 (48753) 2-41-69, +7 (48753) 2-41-01;org;;ГУЗ Алексинская районная больница № 1 им. В.Ф. Снегирева;;Нет;Нет
1508414;Пятёрочка;Пятёрочка;http://www.pyaterochka.ru;;Тульская обл., Алексин г., ул. Арматурная, 10;54.520383;37.04504;8 (800) 555-55-05;org;Ежедневно 08:00-23:00;;;Нет;Нет
1508416;Здесь аптека;Аптеки;;;Тульская обл., Алексинский р-н, Алексин г., ул. Арматурная, 12а;54.520018;37.045902;+7 (48753) 23511;org;;;;Нет;Нет
1508417;Московский индустриальный банк, банкомат;Московский индустриальный банк;http://www.minbank.ru;;Тульская обл., Алексин г., ул. Арматурная, 18;54.519593;37.048734;+7 (4872) 34-14-73, 8 (800) 100-74-74;org;;;;Нет;Нет
1508418;Алеф-банк, банкомат;Алеф Банк;http://www.alefbank.ru;;Тульская обл., Алексинский р-н, Алексин г., ул. Центральная, 3;54.517995;37.045831;8 (800) 500-77-47;org;;;;Нет;Нет
1508419;Алексинский Питомник Гавриш;Дача, сад и огород;http://www.pitomniki-gavrish.ru;;Тульская обл., Алексин, ул. Центральная, 2;54.517718;37.044771;+7 (48753) 7-41-98, +7 (905) 113-33-55;org;ежедневно, 8:00-17:00;;;Нет;Нет
1508421;Весельтряндия;Другое;http://www.veselyatyla.com;;Тульская обл., Алексин г., ул. Центральная, 7;54.517875;37.047942;+7 (961) 152-28-16;org;ежедневно, круглосуточно;;;Нет;Нет
1508422;Алексинская аптека;Аптеки;;;Тульская обл., Алексинский р-н, Алексин г., ул. Центральная, 3;54.517995;37.045831;+7 (48753) 24824;org;;;;Нет;Нет
1508423;Кадастр-Гео-Инвест;Другое;;;Тульская обл., Алексинский р-н, Алексин г., ул. Арматурная, 36б, оф. 1;54.520754;37.047888;+7 (48753) 2-88-46;org;;;;Нет;Нет
1508424;Подростковый клуб Современник Тяжпромарматура;"Тренажерные залы; Учреждения культуры";;;Тульская обл., Алексин, ул. Рабочая, 8;54.519364;37.047169;+7 (48753) 4-69-29;org;;;;Нет;Нет
1508425;Роспечать;Роспечать;http://www.rosp.ru;;Тульская обл., Алексин г., ул. Центральная, 10/12, мкр. Горушки;54.517504;37.046936;;org;;;;Нет;Нет
1508426;Миллениум Плюс;Другое;;;Тульская обл., Алексинский р-н, Алексин г., ул. Арматурная, 36б;54.520754;37.047888;+7 (48753) 2-60-49;org;;;;Нет;Нет
1508427;Магазин № 64;Продукты;;;Тульская обл., Алексинский р-н, Алексин г., ул. Рабочая, 6а;54.518701;37.047681;+7 (48753) 2-71-85;org;;;;Нет;Нет
1508429;Магазин № 63;Продукты;;;Тульская обл., Алексинский р-н, Алексин г., ул. Центральная, 9;54.518277;37.047861;+7 (48753) 2-70-10;org;;;;Нет;Нет
1508430;MoneyGram;Другое;http://ru.moneygraminfo.com;;Тульская обл., Алексин г., ул. Арматурная, 14, Сбербанк;54.519856;37.046828;8 (800) 500-92-53;org;"пн круглосуточно; вт-пт 9:30-18:00; сб 9:00-16:00";;;Нет;Нет
1508431;Для Вас, магазин;Хозтовары;;;Тульская обл., Алексинский р-н, Алексин г., ул. Арматурная, 9;54.521261;37.043405;+7 (48753) 2-64-80;org;;;;Нет;Нет
1508432;Социально-реабилитационный центр для несовершеннолетних Алексинского района, Гусон ТО;Социальная защита;;;Тульская обл., Алексинский р-н, Алексин г., ул. Арматурная, 19;54.522092;37.044375;+7 (48753) 2-60-09;org;;;;Нет;Нет
1508433;Меркулов Ю.В., ИП;Другое;;;Тульская обл., Алексинский р-н, Алексин г., ул. Горная, 6а;54.518763;37.042812;+7 (48753) 2-82-34;org;;;;Нет;Нет
1508434;Омега;Другое;;;Тульская обл., Алексинский р-н, Алексин, ул. Горная, 31;54.519976;37.043199;+7 (48753) 2-63-38;org;пн-пт 8:00-17:00;;;Нет;Нет
1508435;Comepay;Платёжный терминал Comepay;http://www.comepay.ru;;Тульская обл., Алексинский р-н, Алексин г., ул. Арматурная, 34;54.520044;37.049199;8 (800) 100-80-50;org;;;;Нет;Нет
1508436;Отделение почтовой связи Алексин 301370;Почта;http://www.russianpost.ru;;Тульская обл., Алексинский р-н, Алексин г., ул. Новогородищенская, 1;54.514284;36.969591;+7 (920) 7854930;org;вт,чт,сб 9:00-16:00, перерыв 12:00-12:30;;;Нет;Нет
1508437;ФГУ Алексинская воспитательная колония УИН Минюста РФ по Тульской области;Другое;;;Тульская обл., Алексинский р-н, Алексин г., ул. Макаренко;54.488373;37.015836;+7 (48753) 5-70-22;org;пн-пт 8:00-17:00;;;Нет;Нет
1508438;Элекс авто;Автосервисы;;;Тульская обл., Алексинский р-н, Алексин, 73;54.502872;37.020767;+7 (4872) 70-00-15;org;;;;Нет;Нет
1508439;Магазин ТД Обухово;Продукты;;;Тульская обл., Алексинский р-н, Алексин г., ул. Макаренко, 1;54.484629;37.010311;+7 (48753) 5-54-67;org;;;;Нет;Нет
1508441;Сбербанк России, банкомат;Сбербанк России;http://www.sberbank.ru;;Тульская обл., Алексин г., ул. Некрасова, 60;54.5123;37.03736;8 (800) 555-55-50;org;;;;Нет;Нет
1508442;ВТБ 24, банкомат;ВТБ;http://www.vtb24.ru;;Тульская обл., Алексин г., ул. Некрасова, 60, Алексинский з-д тяж.промыш.арм.;54.51368;37.038997;8 (800) 100-24-24;org;;;;Нет;Нет
1508443;Лидер Плюс;Юридические услуги;;;Тульская обл., алексин, Алексин, 29а;54.514075;37.026292;+7 (906) 5350457;org;ежедневно, круглосуточно;;;Нет;Нет
1508444;Тяжпромарматура Алексинский завод тяжелой промышленной арматуры;Другое;http://www.aztpa.ru;;Тульская обл., Алексинский р-н, Алексин г., ул. Некрасова, 60;54.5136;37.038967;+7 (48753) 4-02-68;org;;;;Нет;Нет
1508445;Отделение почтовой связи Алексин 301368;Почта;http://www.russianpost.ru;;Тульская обл., Алексинский р-н, Алексин г., ул. Некрасова, 47;54.512831;37.032967;+7 (48753) 2-40-70, ;org;вт-сб 9:00-18:00, перерыв 13:00-14:00;;;Нет;Нет
1508446;Алеф-банк, операционный офис Алексин;Алеф Банк;http://www.alefbank.ru;;Тульская обл., Алексин г., ул. Некрасова, 60;54.5136;37.038967;+7 (4872) 25-45-37, 8 (800) 500-77-47;org;"пн-чт 9:00-18:00; пт 9:00-17:00";;;Нет;Нет
1508447;Магазин № 2, Алексинское РАЙПО;Продукты;;;Тульская обл., Алексинский р-н, Алексин г., ул. Некрасова, 82;54.51292;37.029975;+7 (48753) 2-71-65;org;;;;Нет;Нет
1508448;Магазин Профи;Другое;;;Тульская обл., Алексинский р-н, Алексин г., пл. Базарная, 23;54.514075;37.026292;+7 (48753) 6-11-25;org;;;;Нет;Нет
1508449;Алеф-банк, банкомат;Алеф Банк;http://www.alefbank.ru;;Тульская обл., Алексинский р-н, Алексин г., ул. Некрасова, 60;54.5136;37.038967;8 (800) 500-77-47;org;;;;Нет;Нет
1508450;Contact;Другое;http://www.contact-sys.com;;Тульская обл., округ Алексин, Алексин, ул. Некрасова, 60;54.5136;37.038967;8 (800) 200-42-42, +7 (4872) 25-45-37;org;"пн-чт 9:00-17:00; пт 9:00-16:00";;;Нет;Нет
1508452;Гостиница Ока;Гостиницы и отели;http://hotel-oka.ru;;Тульская обл., Алексин г., ул. Революции, 9;54.524245;37.070642;+7 (48753) 6-77-40;org;;;;Нет;Нет
1508453;Сбербанк России;Сбербанк России;http://www.sberbank.ru;;Тульская обл., Алексин г., ул. Ленина, 15;54.502187;37.06811;8 (800) 555-55-50, +7 (495) 500-55-50;org;"пн-пт 9:00-18:45; сб 9:00-16:00";;;Нет;Нет
1508454;Сбербанк России;Сбербанк России;http://www.sberbank.ru;;Тульская обл., Алексин г., ул. Пахомова, 7;54.501337;37.073407;8 (800) 555-55-50, +7 (495) 500-55-50;org;пн-пт 9:00-18:00;;;Нет;Нет
1508455;Нотариус Фролова Ольга Васильевна;Нотариусы;http://frolova-oljga-vasiljevna.notaryoffice.ru;;Тульская обл., Алексинский р-н, Алексин г., ул. Революции, 7д;54.522662;37.076903;+7 (48753) 6-78-84;org;;;;Нет;Нет
1508456;ВТБ 24, банкомат;ВТБ;http://www.vtb24.ru;;Тульская обл., Алексин г., ул. Арматурная, 34, Магнит;54.519815;37.050143;8 (800) 100-24-24;org;ежедневно, круглосуточно;;;Нет;Нет
1508457;ВТБ 24, банкомат;ВТБ;http://www.vtb24.ru;;Тульская обл., округ Алексин, Алексин, ул. 50 лет Октября, 4, корп.А;54.523028;37.080056;8 (800) 100-24-24;org;;;;Нет;Нет
1508459;ВТБ 24, банкомат;ВТБ;http://www.vtb24.ru;;Тульская обл., Алексин г., ул. 50 лет Октября, 11б, ТЦ Октябрьский;54.524365;37.08064;8 (800) 100-24-24;org;ежедневно, 10:00-22:00;;;Нет;Нет
1508460;Жалка, санаторий-профилакторий Тяжпромарматура;Другое;;;Тульская обл., Алексинский р-н, Алексин г., ул. Парковая, 1;54.516328;37.056305;+7 (48753) 4-65-79;org;;;;Нет;Нет
1508461;Нотариус Короленкова Елена Владимировна;Нотариусы;http://korolenkova-elena-vladimirovna.notaryoffice.ru;;Тульская обл., Алексинский р-н, Алексин г., ул. Санаторная, 1;54.522918;37.081566;+7 (48753) 6-02-72;org;;;;Нет;Нет
1508462;480 комбинат железобетонных изделий 480 Кжи;Другое;http://www.480kji.ru;;Тульская обл., Алексинский р-н, Алексин г., ул. Парковая, 5;54.518486;37.058371;+7 (48753) 4-08-87;org;;;;Нет;Нет
1508463;ВТБ 24, банкомат;ВТБ;http://www.vtb24.ru;;Тульская обл., округ Алексин, Алексин, ул. Ленина, 1;54.5075;37.067327;8 (800) 100-24-24;org;;;;Нет;Нет
1508464;Банк ВТБ 24;ВТБ;http://www.vtb24.ru;;Тульская обл., Алексин г., ул. Ленина, 14;54.5005;37.067103;8 (800) 100-24-24;org;"пн-пт 9:00-19:00; сб 9:00-17:00";;;Нет;Нет
1508465;Нотариус Олейник Лариса Николаевна;Нотариусы;http://olejnik-larisa-nikolaevna.notaryoffice.ru;;Тульская обл., Алексинский р-н, Алексин г., ул. Санаторная, 1;54.522918;37.081566;+7 (48753) 6-03-05;org;;;;Нет;Нет
1508466;Универсам Магнит;Магнит;http://www.magnit-info.ru;;Тульская обл., Алексин г., ул. Арматурная, 34а;54.519715;37.050796;8 (800) 200-90-02;org;ежедневно, 8:30-21:00;;;Нет;Нет
1508467;Участковый пункт полиции;Полиция;http://71.mvd.ru;;Тульская обл., Алексин г., ул. Революции, 7г;54.522411;37.076032;+7 (915) 6842780, +7 (915) 6842775, +7 (48753) 6-74-24;org;;;;Нет;Нет
1508468;ВТБ 24, банкомат;ВТБ;http://www.vtb24.ru;;Тульская обл., округ Алексин, Алексин, ул. Ленина, 14;54.5035;37.067133;8 (800) 100-24-24;org;;;;Нет;Нет
1508469;Стоматолог и Я;Стоматология;http://aleksin-dent.ru;;Тульская обл., Алексинский р-н, Алексин г., ул. Советская, 1;54.51571;37.086764;+7 (48753) 6-13-11, +7 (910) 5551555;org;Ежедневно 08:00-20:00;;;Нет;Нет
1508471;ГУЗ «АРБ 1 имени профессора В.Ф. Снегирева»;Больницы;;;Тульская обл., Алексинский р-н, Алексин г., ул. Санаторная, 15;54.522207;37.08683;+7 (48753) 6-13-77;org;12:00-12:48;;;Нет;Нет
1508473;ВТБ 24, банкомат;ВТБ;http://www.vtb24.ru;;Тульская обл., Алексин г., ул. Мира, 20, СПАР;54.503474;37.066222;8 (800) 100-24-24;org;ежедневно, круглосуточно;;;Нет;Нет
1508474;"Межрайонный отдел филиала ФГБУ ФКП ""Росреестра"" по Тульской области";БТИ и административные учреждения;https://rosreestr.ru;;Тульская обл., Алексин г., ул. Санаторная, 9;54.522557;37.084746;+7 (48753) 6-16-90;org;обед с 13:00 до 13:48;;;Нет;Нет
1508476;Сбербанк России, банкомат;Сбербанк России;http://www.sberbank.ru;;Тульская обл., Алексин г., ул. Ленина, 15;54.50217;37.06828;8 (800) 555-55-50;org;ежедневно, круглосуточно;;;Нет;Нет
1508477;Связной;Салоны связи Связной;http://www.svyaznoy.ru;;Тульская обл., Алексин г., ул. Мира, 20;54.503495;37.067543;8 (800) 700-43-43, 8 (800) 700-50-00;org;ежедневно, 9:00-20:00;;;Нет;Нет
1508478;ВелесГарант, Агентство недвижимости;Агентства недвижимости;;;Тульская обл., Алексинский р-н, Алексин, ул. Ленина, 1б, оф. 201;54.506867;37.067193;+7 (910) 168-60-12;org;;;;Нет;Нет
1508479;МБУК Алексинская централизованная библиотечная система им. князя Г.Е. Львова;Библиотеки;http://aleksinlib.ru;acbs.aleksin@tularegion.org;Тульская обл., Алексин, ул. Революции, 7;54.521763;37.075834;+7 (48753) 6-76-74;org;"пн-пт 9:00-18:00; сб 11:00-18:00";;;Нет;Нет
1508480;Сбербанк России, банкомат;Сбербанк России;http://www.sberbank.ru;;Тульская обл., Алексин г., ул. Пахомова, 7;54.50125;37.07355;8 (800) 555-55-50;org;ежедневно, круглосуточно;;;Нет;Нет
1508481;"МБОУ ""Средняя общеобразовательная школа 11""";Общеобразовательные школы;http://mbou11.obraleksin.ru;aleksin.sosh11@tularegion.org;301361, Тульская обл., Алексинский район, г.Алексин  ул. Баумана, д.6;54.504562;37.069384;+7 (48753) 4-02-89;org;пн-пт 8:00-17:00;;;Нет;Нет
1508482;Отделение почтовой связи Алексин 301369;Почта;http://www.russianpost.ru;;Тульская обл., Алексинский р-н, Алексин г., ул. 50 лет Октября, 8;54.523916;37.081539;+7 (48753) 6-17-31, ;org;вт-сб 9:00-18:00, перерыв 13:00-14:00;МКР Бор;;Нет;Нет
1508483;Советник, АНО;Юридические услуги;;;Тульская обл., Алексинский р-н, Алексин г., ул. Санаторная, 7;54.522291;37.08382;+7 (48753) 6-30-52;org;;;;Нет;Нет
1508484;Участковый пункт полиции;Полиция;http://71.mvd.ru;;Тульская обл., округ Алексин, Алексин, ул. Южная, 4а;54.515837;37.044744;+7 (48753) 2-71-41;org;;;;Нет;Нет
1508485;Сбербанк России, банкомат;Сбербанк России;http://www.sberbank.ru;;Тульская обл., Алексин г., ул. Ленина, 10, ОСБ 8604/08004;54.504373;37.066735;8 (800) 555-55-50;org;"пн-пт 9:00-18:00; сб,вс круглосуточно";;;Нет;Нет
1508487;ДПС ГИБДД МО МВД России Алексинский;"ГИБДД; ДПС";http://www.gibdd.ru/r/71;;Тульская обл., Алексин г., ул. Радбужская, 37;54.518622;37.084036;+7 (48753) 6-33-02, +7 (48753) 6-32-93, +7 (48753) 6-08-89;org;;;;Нет;Нет
1508488;Агентство недвижимости Квартирный вопрос;Агентства недвижимости;;;Тульская обл., Алексин г., ул. Мира, 18;54.50349;37.067543;+7 (910) 944-18-30, +7 (48753) 4-16-69;org;пн-пт 10:00-18:00;;;Нет;Нет
1508489;Транссервис;Другое;;;Тульская обл., Алексинский р-н, Алексин г., ул. Песчаная, 3;54.509538;37.075879;+7 (48753) 4-01-65;org;;;;Нет;Нет
1508490;Мастердент+;Стоматология;;;Тульская обл., Алексин г., ул. Ленина, 8;54.502098;37.0673;+7 (48753) 4-34-34, +7 910 555 4443;org;По четным числам с 14:00 до 20:00, по нечетным с 9:00 до 15:00;;;Нет;Нет
1508491;Сбербанк России, банкомат;Сбербанк России;http://www.sberbank.ru;;Тульская обл., Алексин г., пл. Победы, 19;54.50192;37.04729;8 (800) 555-55-50;org;"пн-пт 8:30-17:30; сб,вс круглосуточно";;;Нет;Нет
1508492;Сибирское здоровье;Другое;http://ru.siberianhealth.com;;Тульская обл., Алексинский р-н, Алексин г., ул. 50 лет Октября, 11б, эт. 1;54.524365;37.08064;+7 (920) 756-94-66, 8 (800) 755-87-55;org;ежедневно, 9:00-18:00;;;Нет;Нет
1508493;Ростинвест, Агентство недвижимости;Агентства недвижимости;;;Тульская обл., Алексинский р-н, Алексин г., ул. Северная, 17;54.505618;37.066124;+7 (48753) 4-34-33;org;;;;Нет;Нет
1508494;Отдел социальной защиты населения по Алексинскому району;Социальная защита;;;Тульская обл., Алексинский р-н, Алексин г., ул. Мира, 10а;54.503699;37.072115;+7 (48753) 4-49-91, +7 (48753) 4-31-11, +7 (48753) 4-48-45, +7 (48753) 4-49-93, +7 (48753) 4-11-68, +7 (48753) 4-06-92;org;Обед 13:00-13:48;;;Нет;Нет
1508495;Компания Лабазъ;Другое;http://www.stroy-labaz.ru;;Тульская обл., Алексинский р-н, Алексин г., ул. Песчаная, 26;54.52061;37.082985;+7 (910) 942-96-74;org;;;;Нет;Нет
1508496;Дикси;Дикси;http://www.dixy.ru;;Тульская обл., округ Алексин, Алексин, ул. 50 лет Октября, 11/10;54.524177;37.079832;8 (800) 333-02-01;org;ежедневно, 9:00-22:00;;;Нет;Нет
1508497;Билайн;Салоны связи Билайн;http://tulskaya-obl.beeline.ru;;Тульская обл., Алексин г., ул. Мира, 18;54.50349;37.067543;8 (800) 700-06-11;org;;;;Нет;Нет
1508499;Отделение почтовой связи Алексин 301364;Почта;http://www.russianpost.ru;;Тульская обл., Алексинский р-н, Алексин г., ул. Южная, 1;54.516239;37.044663;+7 (48753) 2-40-41, ;org;вт-сб 9:00-18:00, перерыв 13:00-14:00;МКР Горушки;;Нет;Нет
1508500;Газпромбанк, банкомат;"Банки и банкоматы; Газпромбанк";http://www.gazprombank.ru;;Тульская обл., Алексин, ул. Парковая, 5, проходные 480 КЖИ;54.518019;37.058106;8 (800) 100-07-01;org;ежедневно, круглосуточно;;;Нет;Нет
1508501;Отделение почтовой связи Алексин 301361;Почта;http://www.russianpost.ru;;Тульская обл., Алексинский р-н, Алексин г., ул. Баумана, 14;54.50233;37.070265;8 (800) 200-58-88, +7 (48753) 4-06-21;org;вт-сб 9:00-18:00, перерыв 13:00-14:00;;;Нет;Нет
1508502;Аптека Здоровье;Аптеки;;;Тульская обл., Алексин, ул. 50 лет Октября, 12;54.52446;37.081913;+7 (920) 797-70-70;org;ежедневно, 8:00-20:00;;;Нет;Нет
1508503;Судебный участок № 2 мирового судьи г. Алексин Тульской области;Суды;;;Тульская обл., Алексинский р-н, Алексин г., ул. Советская, 20;54.514389;37.089929;+7 (48753) 6-03-20;org;"Обед 13:00-13:45
Прием документов: пн-чт с 9:00-17:30";;;Нет;Нет
1508504;Сбербанк России, платежный терминал;Сбербанк России;http://www.sberbank.ru;;Тульская обл., Алексин г., ул. Пахомова, 9;54.50121;37.07277;8 (800) 555-55-50;org;;;;Нет;Нет
1508506;Отдел судебных приставов Алексинского и Заокского районов;Суды;http://r71.fssprus.ru;;Тульская обл., Алексин г., ул. Мира, 10а;54.503699;37.072115;+7 (48753) 4-09-74;org;"Обед 13:00-14:00
Личный прием: 
вторник 9:00-14:00, 
четверг 16:00-18:00";;;Нет;Нет
1508507;Fix Price;Fix Price;http://www.fix-price.ru;;Тульская обл., Алексинский р-н, Алексин г., ул. Ленина, 1б;54.511823;37.0514;8 (800) 775-35-15;org;ежедневно, 9:00-21:00;;;Нет;Нет
1508508;Джуманджи;Турфирмы и экскурсии;;;Тульская обл., Алексинский р-н, Алексин, ул. Ленина, 1б, оф. 203;54.506867;37.067193;+7 (910) 552-75-14;org;;;;Нет;Нет
1508510;Энергоучет;Другое;http://aleksin1.ok-stanok.ru;;Тульская обл., Алексин, ул. Тургенева, 34;54.50532;37.050178;+7 (48753) 4-79-94;org;ежедневно, 9:00-18:00;;;Нет;Нет
1508511;Московский Индустриальный Банк;Московский индустриальный банк;http://www.minbank.ru;;Тульская обл., Алексин г., ул. Санаторная, 7;54.522556;37.084083;+7 (48753) 6-30-59, 8 (800) 100-74-74;org;вт-сб 9:00-17:00;;;Нет;Нет
1508512;Судебный участок 4 мирового судьи г. Алексин Тульской области;Суды;;;Тульская обл., Алексинский р-н, Алексин г., ул. Советская, 20;54.514389;37.089929;+7 (48753) 6-16-70;org;Обед 13:00-14:00;;;Нет;Нет
1508513;Tele2;Салон связи Теле2;http://tula.tele2.ru;;Тульская обл., Алексин г., ул. Мира, 20, ТЦ SPAR;54.503474;37.066231;;org;ежедневно, 10:00-20:00;;;Нет;Нет
1508515;Собор Успения Пресвятой Богородицы в Алексине (старый);Церкви, храмы, монастыри;;;Тульская обл., Алексин г.;54.516569;37.083862;;org;;;;Нет;Нет
1508516;Дом торговли;Хозтовары;http://aleksin1.wastebuy.ru;;Тульская обл., Алексин, ул. Мира, 20;54.503474;37.066222;+7 (48753) 3-08-10;org;ежедневно, 9:00-18:00;;;Нет;Нет
1508517;Зоомагазин Айболит;Зоомагазины;;;Тульская обл., Алексин г., ул. 50 лет Октября, 12;54.524721;37.082123;+7 (950) 913-23-08;org;;;;Нет;Нет
1508519;ФНС, Территориально обособленное рабочее место в городе Алексине (Операционный зал);Органы надзора и контроля, инспекции;http://www.nalog.ru;;Тульская обл., Алексин г., ул. Максима Горького, 13А;54.502732;37.074199;+7 (48753) 4-16-67, 8 (800) 222-22-22;org;"2-я и 4-я субботы месяца работает с 10:00 до 15:00
Операционный зал без перерывов
Перерыв 12:30-13:15";;;Нет;Нет
1508520;Компания Наши окна;Окна и балконы;http://nashiokna71.ru;;Тульская обл., Алексинский р-н, Алексин г., ул. 50 лет Октября, 12;54.524721;37.082123;+7 (48753) 6-01-56;org;;;;Нет;Нет
1508521;Территориальный орган Федеральной службы государственной статистики по Тульской области;Другое;http://tulastat.gks.ru;;Тульская обл., Алексин г., ул. Советская, 12;54.514776;37.088986;+7 (48753) 6-12-56;org;;;;Нет;Нет
1508522;ОкнаПласт;Окна и балконы;http://oknaplast71.ru;;Тульская обл., Алексин, ул. Мира, 18/11;54.50349;37.067543;+7 (48753) 4-21-10, +7 (980) 722-58-78;org;пн-сб 9:00-18:00;;;Нет;Нет
1508523;ЦЗН г. Алексина;Другое;http://tulatczn.tularegion.ru/tulacznto/Aleksin/;;Тульская обл., Алексин, ул. Мира, 10а;54.503826;37.072395;+7 (48753) 4-49-83;org;"пн 9:00-17:00; вт 12:00-20:00; ср 9:00-17:00; чт 11:00-19:00; пт 9:00-17:00";;;Нет;Нет
1508525;Магазин Хозяюшка;Хозтовары;;;Тульская обл., Алексин г., ул. Ленина, 17/18;54.501598;37.067758;+7 (48753) 4-32-87;org;"пн-сб 9:00-19:00; вс 9:00-18:00";;;Нет;Нет
1508526;МиС-Компани;Другое;;;Тульская обл., Алексин г., ул. 50 лет Октября, 12;54.524983;37.080428;+7 (48753) 6-85-39;org;ежедневно, 10:00-19:00;;;Нет;Нет
1508527;Оптика;Другое;;;Тульская обл., Алексин г., ул. Мира, 18;54.50349;37.067543;+7 (915) 691-60-43, +7 (48753) 4-33-80;org;ежедневно, 9:00-19:00;;;Нет;Нет
1508528;Здесь аптека;Аптеки;;;Тульская обл., Алексинский р-н, Алексин г., ул. Мира, 17/13;54.502664;37.067642;+7 (48753) 4-02-52;org;;;;Нет;Нет
1508529;ИП Волобуев Владимир Анатольевич;Другое;;;Тульская обл., Алексин, ул. Мира, 18/11;54.50349;37.067543;+7 (963) 551-63-05;org;пн-сб 9:00-18:00;;;Нет;Нет
1508530;Алексин Тойз;Интернет-магазины;;;Тульская обл., Алексин г., ул. 50 лет Октября, 12;54.52472;37.082123;+7 (950) 913-17-91;org;ежедневно, 10:00-19:00;;;Нет;Нет
1508531;Судебный участок № 3 мирового судьи г. Алексин Тульской области;Суды;;;Тульская обл., Алексинский р-н, Алексин г., ул. Советская, 20;54.514389;37.089929;+7 (48753) 6-22-42;org;"Обед 13:00-13:45
Прием документов пн-чт с 9:00-17:30";;;Нет;Нет
1508535;Россельхозбанк, банкомат;Россельхоз банк;http://www.rshb.ru;;Тульская обл., Алексин г., ул. Мира, 20, гипермаркет Спар;54.503474;37.066222;8 (800) 200-02-90;org;;;;Нет;Нет
1508536;Кирпичный завод Авангард;Другое;http://www.vash-kirpich.ru;;Тульская обл., Алексин г., ул. Матросова, 3;54.50365;37.05538;+7 (926) 490-41-54;org;пн-сб 9:00-18:00;;;Нет;Нет
1508537;Эконом Строй;Другое;;;Тульская обл., Алексин, ул. Санаторная, 11а;54.522019;37.084764;+7 (902) 842-36-63;org;ежедневно, 9:00-21:00;;;Нет;Нет
1508538;Мачта;"Кафе; Бизнес-ланч";;;Тульская обл., Алексинский р-н, Алексин г., ул. 50 лет Октября, 3а;54.522029;37.078116;+7 (48753) 6-74-28;org;ежедневно, 10:00-2:00;;;Нет;Нет
1508539;Алексинский расчетно-информационный центр, АНО;Другое;;;Тульская обл., Алексинский р-н, Алексин г., ул. Мира, 15;54.502502;37.068998;+7 (48753) 4-31-03;org;;;;Нет;Нет
1508540;Правильная корзинка;Другое;http://agrolip.ru;;Тульская обл., Алексин г., ул. 50 лет Октября, 11/10;54.524177;37.079832;;org;;;;Нет;Нет
1508541;Цифровой супермаркет DNS;"Салоны связи; Компьютеры и оргтехника; Бытовая техника и электроника";http://www.dns-shop.ru;;Тульская обл., округ Алексин, Алексин, ул. Мира, 20;54.503474;37.066222;8 (800) 770-79-99;org;ежедневно, 10:00-21:00;;;Нет;Нет
1508542;Томато МКР Соцгород;Кафе;http://www.tomato-pizza.ru;;Тульская обл., Алексин, ул. Мира, 20а;54.503417;37.065216;+7 (48753) 4-77-27;org;"пн-чт 11:00-22:00; пт,сб 11:00-0:00; вс 11:00-23:00";;;Нет;Нет
1508543;Салон-магазин, ИП Мологина И.А.;Другое;;;Тульская обл., Алексинский р-н, Алексин г., ул. Ленина, 9;54.504274;37.067453;+7 (48753) 4-29-22;org;;;;Нет;Нет
1508545;Стройпоставка;Другое;;;Тульская обл., Алексин г., ул. Советская, 11;54.51522;37.08877;+7 (48753) 4-26-14, +7 (915) 695-82-67;org;пн-пт 9:00-19:00;;;Нет;Нет
1508546;FitMax;Спортивное питание;;;Тульская обл., Алексин, ул. Ленина, 4/14;54.506642;37.066267;+7 (930) 890-46-15;org;;;;Нет;Нет
1508548;Пятёрочка;Пятёрочка;http://www.pyaterochka.ru;;Тульская обл., Алексин г., ул. Южная, 9;54.5152;37.0469;8 (800) 555-55-05;org;ежедневно,07:00-22:00;;;Нет;Нет
1508549;Агентство недвижимости Наш Дом;Агентства недвижимости;http://ourshome.ru;;Тульская обл., Алексин г., ул. Санаторная, 11а;54.522019;37.084764;+7 (4872) 58-28-01;org;"вт 9:00-20:00; ср 9:00-18:00; чт 9:00-20:00; пт 9:00-18:00; сб 9:00-13:00";;;Нет;Нет
1508550;Компания Кристалл;Другое;http://crystal71.ru;;Тульская обл., Алексинский р-н, Алексин г., ул. Ленина, 1б;54.506867;37.067193;+7 (905) 111-91-91;org;;;;Нет;Нет
1508551;Детали машин ГАЗ;Другое;http://dm.gaz.ru;;Тульская обл., Алексин г., ул. Городская Дорога, 2;54.509507;37.066007;+7 (487) 534-76-46;org;ежедневно, 8:00-19:00;;;Нет;Нет
1508552;Магазин Памятники;Другое;;;Тульская обл., Алексин г., ул. Тульская, 5;54.516365;37.088824;+7 (910) 163-23-37;org;ежедневно, 10:00-16:00;;;Нет;Нет
1508553;Фотосалон Кодак;Другое;;;Тульская обл., Алексин г., ул. 50 лет Октября, 8;54.523916;37.081539;+7 (910) 585-92-93;org;"пн-пт 9:30-18:30; сб 9:30-18:00; вс 10:00-16:00";;;Нет;Нет
1508554;Евросеть;Салоны связи Евросеть;http://euroset.ru;;Тульская обл., Алексин г., ул. Мира, 20;54.503474;37.066222;8 (800) 700-00-10;org;ежедневно, 9:00-21:00;;;Нет;Нет
1508555;Биоресурс;Другое;http://bioresurs.alesn.ru;;Тульская обл., Алексин г., пл. Победы, 21;54.501336;37.048759;+7 (910) 555-73-55, +7 (48753) 4-20-55;org;;;;Нет;Нет
1508556;Магазин Луч-Авто;Другое;;;Тульская обл., Алексин г., ул. Тульская, 2;54.516192;37.087629;+7 (48753) 6-24-55;org;ежедневно, 8:00-20:00;;;Нет;Нет
1508557;Дельта;Безопасность и охрана;http://tula.delta.ru;;Тульская обл., Алексин г., ул. Железнодорожная, 45;54.508775;37.071576;+7 (48753) 4-13-87;org;;;;Нет;Нет
1508558;Алексинская аптека;Аптеки;;;Тульская обл., Алексинский р-н, Алексин г., ул. 50 лет Советской Армии, 9;54.524893;37.085087;+7 (48753) 6-15-40, ;org;;;;Нет;Нет
1508559;Живика;Аптеки;http://www.rigla.ru;;Тульская обл., Алексин г., ул. Ленина, 9;54.504274;37.067453;+7 (962) 272-68-59, 8 (800) 777-03-03;org;ежедневно, 8:00-20:00;;;Нет;Нет
1508560;Московский индустриальный банк, банкомат;Московский индустриальный банк;http://www.minbank.ru;;Тульская обл., Алексин г., ул. 50 лет Октября, 11а;54.524939;37.080593;+7 (4872) 34-14-73, 8 (800) 100-74-74;org;;;;Нет;Нет
1508561;Магнит Косметик;"Хозтовары; Косметика и парфюмерия, бытовая химия";http://www.magnit-info.ru;;Тульская обл., Алексин г., ул. Мира, 23;54.501995;37.066088;8 (800) 200-90-02;org;ежедневно, 9:00-21:00;;;Нет;Нет
1508562;Алеф-банк, банкомат;Алеф Банк;http://www.alefbank.ru;;Тульская обл., Алексинский р-н, Алексин г., ул. Мира, 20;54.503474;37.066222;8 (800) 500-77-47;org;;;;Нет;Нет
1508563;Модерн;Окна и балконы;http://roof71.ru;;Тульская обл., Алексин г., ул. Пахомова, 11;54.501167;37.070652;+7 (4872) 58-88-01, +7 (953) 955-44-99;org;ежедневно, 9:00-18:00;;;Нет;Нет
1508564;Western Union;Другое;http://www.westernunion.ru;;Тульская обл., Алексин г., ул. Санаторная, 7, ПАО МИнБанк;54.522291;37.08382;8 (800) 200-22-32;org;вт-сб 9:00-17:00, перерыв 13:00-14:00;;;Нет;Нет
1508565;Спар-аптека;Аптеки;http://www.spartula.ru?p=apteka&act=listaptek;;Тульская обл., Алексинский р-н, Алексин г., ул. Мира, 20;54.503474;37.066222;+7 (48753) 4-08-10;org;ежедневно, 9:00-20:00;;;Нет;Нет
1508566;Правильная корзинка;Другое;http://agrolip.ru;;Тульская обл., Алексин г., ул. Мира, 18/11;54.50349;37.067543;;org;;;;Нет;Нет
1508567;Ливенские Окна;Окна и балконы;http://www.tdld.ru;;Тульская обл., Алексин, ул. Ленина, 7;54.505053;37.067363;+7 (48753) 4-32-02, +7 (48753) 6-07-07;org;пн-сб 10:00-18:00;;;Нет;Нет
1508568;Банк Тульский промышленник (Отозвана лицензия);Банки и банкоматы;http://www.tulaprombank.ru;;Тульская обл., Алексинский р-н, Алексин г., ул. 50 лет Октября, 2;54.521554;37.078835;+7 (48753) 6-84-12;org;"пн-пт 9:00-17:00; сб 9:00-15:30";;;Нет;Нет
1508569;Газпромбанк, банкомат;Газпромбанк;http://www.gazprombank.ru;;Тульская обл., Алексин, ул. Мира, 20, СПАР;54.503445;37.066206;8 (800) 100-07-01;org;ежедневно, 9:00-22:00;;;Нет;Нет
1508570;Алексинский химический комбинат, ФКП;Другое;http://www.alhk.ru;;Тульская обл., Алексинский р-н, Алексин г., пл. Победы, 21;54.501336;37.048759;+7 (48753) 4-08-40;org;;;;Нет;Нет
1508571;Страховой Дом ВСК;"Страховые компании; Автострахование (КАСКО, ОСАГО)";http://www.vsk.ru;;Тульская обл., округ Алексин, Алексин, ул. Ленина, 1б;54.506867;37.067193;+7 (48753) 4-13-18;org;"пн-чт 9:00-19:00; пт 9:00-18:00; сб 10:00-15:00";;;Нет;Нет
1508572;Группа компаний Транссервис Алексин;Другое;http://www.gk-ts.ru;;Тульская обл., Алексин г., ул. Песчаная;54.509098;37.07653;+7 (495) 922-79-22, +7 (48753) 4-14-99;org;пн-пт 8:00-17:00;;;Нет;Нет
1508573;Строй Люкс;Другое;;;Тульская обл., Алексин, ул. Санаторная, 11а;54.522019;37.084764;+7 (953) 953-88-42;org;вт-вс 9:00-19:00;;;Нет;Нет
1508575;Камуфляж71;Другое;http://kamuflage71.ru;;Тульская обл., Алексин, ул. Санаторная, 1а;54.52311;37.081654;+7 (906) 112-03-12;org;ежедневно, 10:00-18:00;;;Нет;Нет
1508577;Центральная коллегия адвокатов г. Алексина и Алексинского района;Юридические услуги;;;Тульская обл., Алексинский р-н, Алексин г., ул. Тульская, 5;54.516365;37.088824;+7 (48753) 6-24-51;org;;;;Нет;Нет
1508579;Школа игры на барабанах;Школы искусств, художественные школы;;;Тульская обл., Алексин, ул. Мира, 19;54.502083;37.065754;+7 (953) 437-40-20;org;ежедневно, 12:00-23:00;;;Нет;Нет
1508580;Керамзит;Другое;http://keramzitka.ru;;Тульская обл., Городской округ Алексин, Алексин, ул. Пахомова, 7/12;54.501211;37.07358;+7 (495) 790-31-50, +7 (963) 933-22-22, +7 (903) 845-22-22;org;ежедневно, 9:00-20:00;;;Нет;Нет
1508581;Ростелеком;Интернет-провайдеры;https://tula.rt.ru/aleksin;;Алексин, Тульская улица, 28;54.514885;37.092274;8 (800) 100-08-00, 8 (800) 450-01-50;org;"пн-пт 9:00-18:00; сб 9:00-14:00";;;Нет;Нет
1508582;Роспечать;Роспечать;http://www.rosp.ru;;Тульская обл., Алексин г., ул. 50 лет Октября, 8;54.523916;37.081539;;org;;;;Нет;Нет
1508583;Компания Премиум Кирпич Плюс;Другое;http://brickandpress.com;;Тульская обл., Алексинский р-н, Алексин, ул. Матросова, 3а;54.504044;37.055802;+7 (903) 843-51-15;org;пн-пт 9:00-18:00;;;Нет;Нет
1508584;Туласнаб;Хозтовары;http://www.tulasnab.ru;;Тульская обл., Алексин, ул. Песчаная, 26;54.51102;37.06956;+7 (48753) 4-05-10;org;пн-сб 9:00-18:00;;;Нет;Нет
1508585;Ника;Окна и балконы;http://potolok-aleksin.ru;;Тульская обл., Алексинский р-н, Алексин, ул. Ленина, 1б, оф. 214;54.506867;37.067193;+7 (48753) 4-09-13;org;ежедневно, 9:00-18:00;;;Нет;Нет
1508586;Алексин лифт;Другое;;;Тульская обл., Алексинский р-н, Алексин г., ул. 50 лет Октября, 6;54.52344;37.081718;+7 (48753) 6-23-35;org;;;;Нет;Нет
1508587;Универсам Магнит;Магнит;http://www.magnit-info.ru;;Тульская обл., Алексин г., ул. Мира, 32;54.502795;37.060132;8 (800) 200-90-02;org;ежедневно, 9:00-21:00;;;Нет;Нет
1508588;Красное и Белое;Продукты;http://www.krasnoeibeloe.ru;;Тульская обл., округ Алексин, Алексин, ул. Баумана, 14;54.50232;37.070307;8 (800) 100-08-04;org;"пн-пт 14:00-22:00; сб,вс 12:00-22:00";;;Нет;Нет
1508589;Строительное управление № 2;Другое;;;Тульская обл., Алексин г., ул. Пахомова, 7/12;54.501211;37.07358;+7 (48753) 4-14-23;org;пн-пт 8:00-16:00;;;Нет;Нет
1508593;Алексинская аптека;Аптеки;;;Тульская обл., Алексинский р-н, Алексин г., ул. Советская, 2;54.515507;37.086821;+7 (48753) 6-23-33;org;;;;Нет;Нет
1508594;Дикси;Дикси;http://www.dixy.ru;;Тульская обл., Алексинский р-н, Алексин г., ул. Мира, 10;54.503699;37.072115;8 (800) 333-02-01;org;ежедневно, 10:00-22:00;;;Нет;Нет
1508595;ХимПромОборудование;Другое;http://granit71.ru;;Тульская обл., Алексинский р-н, Алексин, ул. 25 лет Освобождения, 3а;54.506632;37.081772;+7 (4872) 79-24-50;org;;;;Нет;Нет
1508596;В-Пак;Другое;http://www.taraservis.ru;;Тульская обл., Алексин г., ул. Песчаная;54.50849;37.07753;+7 (910) 942-17-99;org;пн-пт 9:00-18:00;;;Нет;Нет
1508597;Парное мясо;Продукты;;;Тульская обл., Алексин, пл. Победы, 10;54.503009;37.052721;+7 (915) 780-88-55;org;ежедневно, 10:00-18:30;;;Нет;Нет
1508598;Дента;Стоматология;http://стоматология-дента.рф;;Тульская обл., Алексинский р-н, Алексин г., ул. Северная, 15;54.505665;37.067705;+7 (48753) 4-89-48, 89612671953;org;;;;Нет;Нет
1508600;Эксперт-Недвижимость;Агентства недвижимости;;;Тульская обл., Алексинский р-н, Алексин, ул. Поленова, 5а;54.513683;37.0886;+7 (920) 771-48-84, +7 (910) 581-05-01;org;ежедневно, 9:00-21:00;;;Нет;Нет
1508602;Семин;Другое;http://semin.ru;;Тульская обл., Алексин г., ул. Железнодорожная, 45;54.508705;37.071957;+7 (48753) 4-07-97;org;пн-пт 8:00-17:00;;;Нет;Нет
1508603;АлексинТрансГруз;Транспорт и логистика, грузоперевозки;http://www.transgryz.ru;;Тульская обл., Алексин г., пл. Победы, 10;54.503009;37.052721;+7 (910) 555-55-75, +7 (48753) 4-40-90;org;пн-пт 9:00-18:00;;;Нет;Нет
1508604;МегаФон;Салоны связи Мегафон;http://www.megafon.ru;;Тульская обл., Алексин, ул. Ленина, 7;54.50515;37.067803;8 (800) 550-05-00;org;ежедневно, 9:00-20:00;;;Нет;Нет
1508605;Черока;Кондитерские изделия, торты на заказ;http://www.cheroka.ru;;Тульская обл., Алексин, ул. Матросова, 6;54.50428;37.05849;;org;;;;Нет;Нет
1508606;Тульский кирпичный завод Авангард;Другое;http://тульскийкирпич.рф;;Тульская обл., Алексин, ул. Матросова, 3;54.504044;37.055802;+7 (930) 790-91-90;org;ежедневно, 9:00-20:00;;;Нет;Нет
1508607;Алексинстройконструкция;Другое;;;Тульская обл., Алексинский р-н, Алексин, РФ, Тульская область, г. Алексин-8;54.51182;37.0514;+7 (48753) 2-71-35;org;;;;Нет;Нет
1508608;Pay Travel;Другое;;;Тульская обл., Алексин, ул. Ворошилова, 50а;54.503114;37.06739;+7 (4967) 35-11-85;org;;;;Нет;Нет
1508609;Окна ГОСТ;Окна и балконы;http://plastokna-tula.ru;;Тульская обл., Алексинский р-н, Алексин г., ул. Ленина, 1б;54.506867;37.067193;+7 (905) 111-70-70;org;;;;Нет;Нет
1508610;Судебный участок № 1 мирового судьи г. Алексин Тульской области;Суды;;;Тульская обл., Алексинский р-н, Алексин г., ул. Советская, 20;54.514389;37.089929;+7 (48753) 6-03-04;org;"Обед 13:00-13:45
Прием документов: пн-чт с 9:00-17:30";;;Нет;Нет
1508611;Академия Ремонта;Сантехнические работы;http://remont-aleksin.ulcraft.com;;Тульская обл., Алексин г., ул. Ленина, 1б;54.506867;37.067193;+7 (901) 998-55-80;org;ежедневно, 9:00-20:00;;;Нет;Нет
1508612;Эип, электротехническая компания;Другое;;;Тульская обл., Алексинский р-н, Алексин г., ул. Карла Маркса, 11а;54.489963;37.03691;+7 (48753) 4-99-53;org;;;;Нет;Нет
1508613;Отделение почтовой связи Алексин 301363;Почта;http://www.russianpost.ru;;Тульская обл., Алексинский р-н, Алексин г., ул. Карла Маркса, 8;54.490293;37.037162;+7 (48753) 4-95-03, ;org;вт-сб 9:00-18:00, перерыв 13:00-14:00;МКР Соцгород;;Нет;Нет
1508614;Термоэлектро, Алексинский филиал;Другое;;;Тульская обл., Алексинский р-н, Алексин г., ул. Энергетиков, 1;54.489477;37.037638;+7 (48753) 4-31-68;org;;;;Нет;Нет
1508615;Western Union;Другое;http://www.westernunion.ru;;Тульская обл., Алексин г., ул. Карла Маркса, 8, ФГУП Почта России;54.490293;37.037162;8 (800) 200-22-32;org;ср-вс 9:00-18:00;;;Нет;Нет
1508616;Центральная генерация, филиал Квадра, Алексинская ТЭЦ;Другое;;;Тульская обл., Алексинский р-н, Алексин г., ул. Энергетиков, 1;54.489477;37.037638;+7 (48753) 4-13-61;org;;;;Нет;Нет
1508617;Western Union;Другое;http://www.westernunion.ru;;Тульская обл., Алексин г., ул. 50 лет Октября, 8, ФГУП Почта России;54.523916;37.081539;8 (800) 200-22-32;org;вт-вс 9:00-20:00;;;Нет;Нет
1508618;Fix Price;Fix Price;http://www.fix-price.ru;;"Тульская обл., Алексинский р-н, Алексин, ул. 50 лет Октября, ТЦ ""Золотая аллея""";54.52366;37.080362;8 (800) 775-35-15;org;ежедневно, 10:00-21:00;;;Нет;Нет
1508619;Проект - архитектурно строительное бюро;Другое;http://www.oooproekt.ru;;Тульская обл., Алексин, ул. Санаторная, 1;54.522918;37.081566;+7 (903) 697-08-28, +7 (48753) 6-00-87;org;пн-пт 9:00-18:00;;;Нет;Нет
1508620;Московский кредитный банк, платежный терминал;Московский Кредитный Банк;http://mkb.ru;;Тульская обл., Алексин г., ул. 50 лет Октября, 5, Универсам Пятерочка;54.522527;37.078805;+7 (495) 777-48-88, 8 (800) 100-48-88;org;ежедневно, 8:00-23:00;;;Нет;Нет
1508621;Салют;Гостиницы и отели;http://www.aleksinhotel.ru;;Тульская обл., Алексин г., ул. Болотова, 18;54.494026;37.122556;+7 (915) 688-20-20;org;;;;Нет;Нет
1508622;Калита;Другое;http://kalitablok.ru;;Тульская обл., Алексинский р-н, Алексин г., ул. Болотова, 26;54.49019;37.12059;+7 (48753) 6-95-70;org;;;;Нет;Нет
1508623;Аквагоризонт МонолитРесурс;Другое;http://аква-горизонт.рф;;Тульская обл., Алексин, ул. Болотова, 18д;54.494026;37.122556;+7 (48753) 6-96-53;org;;;;Нет;Нет
1508624;Сбербанк России, банкомат;Сбербанк России;http://www.sberbank.ru;;Тульская обл., Алексин г., ул. Генерала Короткова 2а;54.509105;37.120085;8 (800) 555-55-50;org;08:30 - 22:30;;;Нет;Нет
1508625;Монолитресурс;Другое;http://monolit-resurs.ru;;Тульская обл., Алексинский р-н, Алексин г., ул. Болотова, 18д;54.494026;37.122556;+7 (48753) 6-96-53;org;;;;Нет;Нет
1508626;Алексинагропромснаб;Другое;;;Тульская обл., Алексинский р-н, Алексин г., ул. Болотова, 18в;54.492594;37.122726;+7 (48753) 6-96-41;org;;;;Нет;Нет
1508627;Завод КБИ;Другое;;;Тульская обл., Алексинский р-н, Алексин г., ул. Болотова, 18д;54.494026;37.122556;+7 (48753) 6-97-85;org;;;;Нет;Нет
1508628;Сбербанк России, банкомат;Сбербанк России;http://www.sberbank.ru;;Тульская обл., Алексин г., ул. Болотова, 10а;54.500688;37.123445;8 (800) 555-55-50;org;ежедневно, 9:00-23:00;;;Нет;Нет
1508630;Мебель, ИП Асрян С.Г.;Другое;;;Тульская обл., Алексинский р-н, Алексин, ул. Болотова, 26;54.489958;37.119439;+7 (48753) 6-95-24;org;;;;Нет;Нет
1508631;Аква Горизонт, бурение колодцев;Другое;;;Тульская обл., Алексинский р-н, Алексин г., ул. Болотова, 18д;54.494026;37.122556;+7 (910) 076-34-55;org;;;;Нет;Нет
1508633;Кирпичная компания Русская;Другое;http://www.ruskirpich.ru;;Тульская обл., Алексин, ул. Болотова, 18д;54.494026;37.122556;+7 (960) 603-48-43, +7 (903) 130-34-35;org;пн-пт 8:00-18:00;;;Нет;Нет
1508634;НовоПласт;Другое;http://www.nvplast.ru;;Тульская обл., Алексин г., ул. Болотова, 1а;54.494382;37.117876;+7 (910) 166-11-92, +7 (910) 581-56-57, +7 (48753) 6-97-39;org;пн-пт 9:00-18:00;;;Нет;Нет
1508635;OOO Новоарм;Другое;http://www.novoarm71.ru;;Тульская обл., Алексин, ул. Болотова, 1;54.494382;37.117876;+7 (920) 757-46-37;org;;;;Нет;Нет
1508636;Пятёрочка;Пятёрочка;http://www.pyaterochka.ru;;Тульская обл., Алексин г., ул. Болотова, 10;54.500688;37.123445;8 (800) 555-55-05;org;ежедневно, 8:00-22:00;;;Нет;Нет
1508637;Алексинский молочный завод;Другое;http://aleksinmoloko.narod.ru;;Тульская обл., Алексинский р-н, Алексин г., ул. Болотова, 16;54.500238;37.122089;+7 (48753) 6-96-80;org;;;;Нет;Нет
1508638;Рубин, Алексинский завод;Двери;http://az-rubin.ru;;Тульская обл., Алексин, ул. Болотова, 18;54.493988;37.12099;+7 (48753) 6-99-22;org;пн-пт 9:00-18:00;;;Нет;Нет
1508639;Ленинское ДРСУ, филиал, ГУ ТО Тулаавтодор;Другое;;;Тульская обл., Алексинский р-н, Алексин г., ул. Ломоносова, 65;54.498795;37.107356;+7 (48753) 6-08-14;org;;;;Нет;Нет
1508640;Сельжилкомсервис, МУП;Другое;;;Тульская обл., Алексинский р-н, Алексин г., ул. Болотова, 18;54.494026;37.122556;+7 (48753) 6-92-78;org;;;;Нет;Нет
1508641;Алексинский, УКК;Другое;;;Тульская обл., Алексинский р-н, Алексин г., ул. Болотова, 20;54.49353;37.122529;+7 (48753) 6-96-60;org;;;;Нет;Нет
1508642;Алекон;Другое;;;Тульская обл., Алексинский р-н, Алексин г., ул. Болотова, 18;54.494026;37.122556;+7 (48753) 6-97-81;org;;;;Нет;Нет
1508644;Компания Русский колодец;Другое;http://русскийколодец.рф;;Тульская обл., Алексин г., ул. Болотова, 8, корп.2;54.502235;37.12278;+7 (905) 623-23-23;org;ежедневно, 9:00-21:00;;;Нет;Нет
1508645;Уютный Дом;Окна и балконы;http://aleksin-okna.ru;;Тульская обл., Алексинский р-н, Алексин, ул. Болотова, 2б;54.503;37.123596;+7 (48753) 2-20-47, +7 (910) 166-78-76;org;вт-сб 9:00-17:00;;;Нет;Нет
1508646;ПК Металл;Дача, сад и огород;http://pkmetall71.ru;;Тульская обл., Алексин, Солнечный пр-д, 1;54.496567;37.12002;+7 (960) 599-01-69;org;пн-пт 8:00-17:00;;;Нет;Нет
1508647;Производственная компания Металл;Другое;http://pkmetall71.ru;;Тульская обл., Алексинский р-н, Алексин, Солнечный пр-д, 1;54.498346;37.122726;+7 (960) 602-57-43;org;пн-сб 8:00-18:00;;;Нет;Нет
1508648;Пожарная часть № 28, 4-й отряд ФПС, ГУ МЧС России по ТО;Пожарная охрана;;;Тульская обл., Алексинский р-н, Алексин г., ул. Болотова, 18а;54.494821;37.12261;+7 (48753) 6-95-93;org;;;;Нет;Нет
